{
  "metadata": {
    "source": "valencia-260407.osm.pbf",
    "total_landmarks": 10431,
    "region": "Valencia"
  },
  "landmarks": [
    {
      "name": "Ràbida Califal",
      "lat": 38.102041,
      "lon": -0.650937,
      "fame_score": 12,
      "name_es": "Rábita Califal",
      "name_ca": "Ràbida Califal",
      "name_en": "Islamic Caliphate Rabita",
      "categories": [
        "historic=archaeological_site",
        "tourism=attraction"
      ],
      "wikipedia": "es:Rábita Califal de las Dunas de Guardamar",
      "wikidata": "Q6114634",
      "osm_type": "node",
      "osm_id": 1436595462
    },
    {
      "name": "Castell de Guardamar",
      "lat": 38.09151,
      "lon": -0.657547,
      "fame_score": 12,
      "name_es": "Castillo de Guardamar",
      "name_ca": "Castell de Guardamar",
      "name_en": "Guardamar Castle",
      "categories": [
        "historic=castle",
        "tourism=attraction"
      ],
      "wikipedia": "es:Castillo de Guardamar",
      "wikidata": "Q4895569",
      "osm_type": "way",
      "osm_id": 172936562
    },
    {
      "name": "Llotja de la Seda",
      "lat": 39.474378,
      "lon": -0.378437,
      "fame_score": 11,
      "name_es": "Lonja de la Seda",
      "name_ca": "Llotja de la Seda",
      "name_en": "Silk Exchange",
      "categories": [
        "historic=heritage",
        "tourism=attraction",
        "building=yes"
      ],
      "wikipedia": "en:Lonja de la Seda",
      "wikidata": "Q588009",
      "address": "Carrer de la Llotja, 2, València",
      "osm_type": "way",
      "osm_id": 23377876
    },
    {
      "name": "Castillo de Sax",
      "lat": 38.540282,
      "lon": -0.817266,
      "fame_score": 10,
      "name_es": "Castillo de Sax",
      "name_ca": "Castell de Saix",
      "name_en": "Sax Castle",
      "categories": [
        "historic=castle"
      ],
      "wikipedia": "es:Castillo de Sax",
      "wikidata": "Q1553695",
      "year": "C12",
      "osm_type": "node",
      "osm_id": 10946782542
    },
    {
      "name": "Palmerar d'Elx",
      "osm_type": "relation",
      "osm_id": 2900419,
      "categories": [
        "historic=heritage",
        "tourism=attraction"
      ],
      "fame_score": 10,
      "wikipedia": "es:Palmeral de Elche",
      "wikidata": "Q930784",
      "needs_geocoding": true
    },
    {
      "name": "Ciutat Fenícia de la Fonteta",
      "lat": 38.101551,
      "lon": -0.650281,
      "fame_score": 9,
      "name_es": "Ciudad Fenicia de la Fonteta",
      "name_ca": "Ciutat Fenícia de la Fonteta",
      "name_en": "Phoenician port city of la Fonteta",
      "categories": [
        "historic=archaeological_site",
        "tourism=attraction"
      ],
      "wikipedia": "es:Ciudad portuaria fenicia La Fonteta",
      "wikidata": "Q3559159",
      "osm_type": "node",
      "osm_id": 1436595458
    },
    {
      "name": "Mercat Central",
      "lat": 39.473419,
      "lon": -0.379098,
      "fame_score": 9,
      "name_es": "Mercado Central",
      "name_ca": "Mercat Central",
      "name_en": "Central Market",
      "categories": [
        "historic=yes",
        "tourism=attraction",
        "amenity=marketplace",
        "building=yes"
      ],
      "wikipedia": "es:Mercado Central de Valencia",
      "wikidata": "Q2197068",
      "address": "Plaça ciutat de Bruges, 5, València",
      "osm_type": "way",
      "osm_id": 5007139
    },
    {
      "name": "Jardí Botànic de la Universitat de València",
      "lat": 39.476721,
      "lon": -0.386398,
      "fame_score": 9,
      "name_es": "Jardín Botánico de la Universidad de Valencia",
      "name_ca": "Jardí Botànic de la Universitat de València",
      "name_en": "Botanic Garden of University of Valencia",
      "categories": [
        "tourism=attraction",
        "leisure=garden"
      ],
      "wikipedia": "es:Jardín Botánico de la Universidad de Valencia",
      "wikidata": "Q9010986",
      "address": "Calle Doctor Peset Cervera, 80",
      "osm_type": "way",
      "osm_id": 10115902
    },
    {
      "name": "Mercat Central d'Alacant",
      "lat": 38.348073,
      "lon": -0.486249,
      "fame_score": 9,
      "name_es": "Mercado Central de Alicante",
      "name_ca": "Mercat Central d'Alacant",
      "name_en": "Alicante Central Market",
      "categories": [
        "amenity=marketplace",
        "building=yes"
      ],
      "wikipedia": "es:Mercado Central de Alicante",
      "wikidata": "Q9031615",
      "architect": "Enrique Sánchez Sedeño",
      "address": "Avinguda Alfons el Savi, Alicante",
      "osm_type": "way",
      "osm_id": 21410214
    },
    {
      "name": "Església Parroquial de Sant Miquel Arcàngel",
      "lat": 38.759504,
      "lon": -0.083335,
      "fame_score": 9,
      "name_es": "Iglesia Parroquial de San Miguel Arcángel",
      "name_ca": "Església Parroquial de Sant Miquel Arcàngel",
      "categories": [
        "historic=church",
        "tourism=attraction",
        "amenity=place_of_worship",
        "building=church"
      ],
      "wikipedia": "ca:Església de Sant Miquel Arcàngel (Murla)",
      "wikidata": "Q43157063",
      "religion": "christian",
      "osm_type": "way",
      "osm_id": 234127577
    },
    {
      "name": "Plaça de Bous de València",
      "lat": 39.466584,
      "lon": -0.375954,
      "fame_score": 9,
      "name_es": "Plaza de Toros de Valencia",
      "name_ca": "Plaça de Bous de València",
      "name_en": "Valencia Bullring",
      "categories": [
        "tourism=attraction",
        "leisure=stadium"
      ],
      "wikipedia": "es:Plaza de Toros de Valencia",
      "wikidata": "Q6080287",
      "address": "Carrer de Xàtiva, 28, València",
      "osm_type": "way",
      "osm_id": 515256276
    },
    {
      "name": "Castell de Busot",
      "lat": 38.485533,
      "lon": -0.417289,
      "fame_score": 9,
      "name_es": "Castillo de Busot",
      "name_ca": "Castell de Busot",
      "name_en": "Castle of Busot",
      "categories": [
        "historic=castle",
        "tourism=attraction",
        "building=yes"
      ],
      "wikidata": "Q24021928",
      "osm_type": "way",
      "osm_id": 688397946
    },
    {
      "name": "Museu de les Ciències «Príncep Felip»",
      "osm_type": "relation",
      "osm_id": 14693200,
      "categories": [
        "tourism=museum",
        "building=roof;yes"
      ],
      "fame_score": 9,
      "wikipedia": "ca:Museu de les Ciències Príncep Felip",
      "wikidata": "Q939288",
      "needs_geocoding": true
    },
    {
      "name": "Catedral de Orihuela",
      "osm_type": "relation",
      "osm_id": 15396000,
      "categories": [
        "amenity=place_of_worship",
        "building=cathedral"
      ],
      "fame_score": 9,
      "wikipedia": "es:Catedral de Orihuela",
      "wikidata": "Q2942573",
      "needs_geocoding": true
    },
    {
      "name": "Museu Arqueològic Municipal Camilo Visedo Moltó",
      "lat": 38.700194,
      "lon": -0.473682,
      "fame_score": 8,
      "name_es": "Museo Arqueológico Municipal Camilo Visedo Moltó",
      "name_ca": "Museu Arqueològic Municipal Camil Visedo Moltó",
      "name_en": "Municipal Archaeological Museum Camilo Visedo Moltó",
      "categories": [
        "tourism=museum"
      ],
      "description": "Museo Arqueológico Municipal, Camilo Visedo Moltó",
      "wikipedia": "ca:Museu Arqueològic Municipal Camil Visedo Moltó",
      "wikidata": "Q964773",
      "address": "Placeta del Carbo S/N, Alcoy",
      "osm_type": "node",
      "osm_id": 4038829578
    },
    {
      "name": "Acueducto Ojival",
      "lat": 38.635515,
      "lon": -0.766741,
      "fame_score": 8,
      "name_es": "Acueducto Ojival",
      "name_ca": "Aqüeducte Ogival",
      "categories": [
        "historic=archaeological_site",
        "tourism=attraction"
      ],
      "wikipedia": "ca:Aqüeducte de la Rambla dels Molins",
      "wikidata": "Q27891840",
      "osm_type": "node",
      "osm_id": 5281607140
    },
    {
      "name": "València - Estació del Nord",
      "lat": 39.466913,
      "lon": -0.377191,
      "fame_score": 8,
      "name_es": "Valencia - Estación del Norte",
      "name_ca": "València - Estació del Nord",
      "name_en": "Valencia - North Station",
      "categories": [
        "building=train_station"
      ],
      "wikipedia": "ca:Estació del Nord (València)",
      "wikidata": "Q1102684",
      "address": "Carrer de Xàtiva, 24, València",
      "osm_type": "node",
      "osm_id": 7246471728
    },
    {
      "name": "Castell de Xàtiva",
      "lat": 38.982807,
      "lon": -0.51857,
      "fame_score": 8,
      "name_es": "Castillo de Játiva",
      "name_ca": "Castell de Xàtiva",
      "categories": [
        "historic=castle",
        "tourism=yes"
      ],
      "wikipedia": "ca:Castell de Xàtiva",
      "wikidata": "Q2455157",
      "osm_type": "node",
      "osm_id": 11329708190
    },
    {
      "name": "Muntanya Assolada",
      "lat": 39.146193,
      "lon": -0.383085,
      "fame_score": 8,
      "name_es": "Muntanya Assolada",
      "name_ca": "Muntanya Assolada",
      "name_en": "Muntanya Assolada",
      "categories": [
        "historic=archaeological_site"
      ],
      "wikipedia": "ca:Muntanya Assolada",
      "wikidata": "Q28919740",
      "osm_type": "node",
      "osm_id": 12454135445
    },
    {
      "name": "Estació del Nord",
      "lat": 39.466416,
      "lon": -0.377441,
      "fame_score": 8,
      "name_es": "Estación del Norte",
      "name_ca": "Estació del Nord",
      "name_en": "North Station",
      "categories": [
        "historic=yes",
        "building=train_station"
      ],
      "wikipedia": "ca:Estació del Nord (València)",
      "wikidata": "Q1102684",
      "address": "Carrer de Xàtiva, 24, València",
      "osm_type": "way",
      "osm_id": 10153012
    },
    {
      "name": "Palau de les Arts Reina Sofia",
      "lat": 39.458082,
      "lon": -0.355916,
      "fame_score": 8,
      "name_es": "Palacio de las Artes Reina Sofía",
      "name_ca": "Palau de les Arts Reina Sofia",
      "name_en": "Reina Sofia Palace of the Arts",
      "categories": [
        "amenity=theatre",
        "building=yes"
      ],
      "wikipedia": "ca:Palau de les Arts Reina Sofia",
      "wikidata": "Q747342",
      "osm_type": "way",
      "osm_id": 23433773
    },
    {
      "name": "Parc Reina Sofía",
      "lat": 38.088475,
      "lon": -0.650977,
      "fame_score": 8,
      "name_es": "Parque Reina Sofía",
      "name_ca": "Parc Reina Sofía",
      "name_en": "Queen Sofia Park",
      "categories": [
        "tourism=attraction",
        "leisure=park"
      ],
      "wikidata": "Q24021673",
      "osm_type": "way",
      "osm_id": 36964303
    },
    {
      "name": "Església de Sant Jaume Apòstol",
      "lat": 38.090004,
      "lon": -0.654881,
      "fame_score": 8,
      "name_es": "Iglesia de San Jaime Apóstol",
      "name_ca": "Església de Sant Jaume Apòstol",
      "name_en": "Saint James the apostle parish church",
      "categories": [
        "amenity=place_of_worship",
        "building=church"
      ],
      "wikidata": "Q57494742",
      "religion": "christian",
      "denomination": "catholic",
      "osm_type": "way",
      "osm_id": 36964316
    },
    {
      "name": "Torre de Sant Josep",
      "lat": 38.164358,
      "lon": -0.475271,
      "fame_score": 8,
      "name_es": "Torre de San José",
      "name_ca": "Torre de Sant Josep",
      "name_en": "San Jose Tower",
      "categories": [
        "historic=tower",
        "building=yes",
        "man_made=tower"
      ],
      "wikidata": "Q43150915",
      "osm_type": "way",
      "osm_id": 43376626
    },
    {
      "name": "Basílica de la Mare de Déu dels Desemparats",
      "lat": 39.476228,
      "lon": -0.3749,
      "fame_score": 8,
      "name_es": "Basílica de la Virgen de los Desamparados",
      "name_ca": "Basílica de la Mare de Déu dels Desemparats",
      "name_en": "Basilica of the Virgin of the Helpless",
      "categories": [
        "amenity=place_of_worship",
        "building=church"
      ],
      "wikipedia": "ca:Basílica de la Mare de Déu dels Desemparats",
      "wikidata": "Q978306",
      "address": "Plaça de la Mare de Déu, València",
      "religion": "christian",
      "denomination": "roman_catholic",
      "osm_type": "way",
      "osm_id": 135630265
    },
    {
      "name": "Catedral de València",
      "lat": 39.475589,
      "lon": -0.375283,
      "fame_score": 8,
      "name_es": "Catedral de Valencia",
      "name_ca": "Catedral de València",
      "name_en": "Valencia Cathedral",
      "categories": [
        "amenity=place_of_worship",
        "building=cathedral"
      ],
      "wikipedia": "es:Catedral de Santa María (Valencia)",
      "wikidata": "Q1466926",
      "address": "València",
      "religion": "christian",
      "denomination": "roman_catholic",
      "osm_type": "way",
      "osm_id": 135630267
    },
    {
      "name": "Castell d'Alèdua",
      "lat": 39.296844,
      "lon": -0.56148,
      "fame_score": 8,
      "name_es": "Castillo de Alédua",
      "name_ca": "Castell d'Alèdua",
      "name_en": "Castell d'Alèdua",
      "categories": [
        "building=yes",
        "man_made=tower"
      ],
      "wikipedia": "ca:Castell d'Alèdua",
      "wikidata": "Q3816812",
      "osm_type": "way",
      "osm_id": 612031626
    },
    {
      "name": "Castell de Sumacàrcer - Castell de Penya-roja",
      "lat": 39.088164,
      "lon": -0.628072,
      "fame_score": 8,
      "name_es": "Castillo de Sumacárcel - Castillo de Peñarroya",
      "name_ca": "Castell de Sumacàrcer - Castell de Penya-roja",
      "categories": [
        "historic=castle",
        "building=yes"
      ],
      "wikipedia": "ca:Castell de Sumacàrcer",
      "wikidata": "Q5757618",
      "osm_type": "way",
      "osm_id": 899603535
    },
    {
      "name": "Zona arqueològica del Pla de Nadal",
      "lat": 39.497796,
      "lon": -0.535963,
      "fame_score": 8,
      "name_es": "Zona arqueológica del Pla de Nadal",
      "name_ca": "Zona arqueològica del Pla de Nadal",
      "name_en": "Archaeological zone of the Pla de Nadal",
      "categories": [
        "historic=archaeological_site"
      ],
      "wikipedia": "ca:Zona arqueològica del Pla de Nadal",
      "wikidata": "Q23747",
      "osm_type": "way",
      "osm_id": 1343222757
    },
    {
      "name": "Poblat ibèric emmurallat Los Villares",
      "lat": 39.553432,
      "lon": -1.283067,
      "fame_score": 8,
      "name_es": "Poblado ibérico amurallado Los Villares",
      "name_ca": "Poblat ibèric murat Los Villares",
      "name_en": "Kelin",
      "categories": [
        "historic=archaeological_site"
      ],
      "wikipedia": "ca:Zona arqueològica del Pla de Nadal",
      "wikidata": "Q6081055",
      "osm_type": "way",
      "osm_id": 1343590021
    },
    {
      "name": "EUIPO",
      "osm_type": "relation",
      "osm_id": 10647695,
      "categories": [
        "building=yes"
      ],
      "fame_score": 8,
      "wikipedia": "en:European Union Intellectual Property Office",
      "wikidata": "Q792534",
      "needs_geocoding": true
    },
    {
      "name": "Museu Arqueològic, Etnològic i Paleontològic",
      "lat": 38.092367,
      "lon": -0.654013,
      "fame_score": 7,
      "name_es": "Museo Arqueológico, Etnológico y Paleontológico",
      "name_ca": "Museu Arqueològic, Etnològic i Paleontològic",
      "name_en": "Archaeological Museum of Guardamar",
      "categories": [
        "tourism=museum"
      ],
      "osm_type": "node",
      "osm_id": 1436595460
    },
    {
      "name": "Sénia del Riu Sec",
      "lat": 38.089988,
      "lon": -0.652567,
      "fame_score": 7,
      "name_es": "Noria del Río Seco",
      "name_ca": "Sénia del Riu Sec",
      "name_en": "Dry river Water wheel",
      "categories": [
        "tourism=attraction",
        "man_made=watermill"
      ],
      "osm_type": "node",
      "osm_id": 2261374701
    },
    {
      "name": "Castell de Penàguila",
      "lat": 38.67465,
      "lon": -0.363284,
      "fame_score": 7,
      "name_es": "Castillo de Penáguila",
      "name_ca": "Castell de Penàguila",
      "categories": [
        "historic=castle"
      ],
      "wikipedia": "ca:Castell de Penàguila",
      "wikidata": "Q4885196",
      "year": "C8",
      "osm_type": "node",
      "osm_id": 4133379604
    },
    {
      "name": "Museo Nacional de Cerámica y Artes Suntuarias González Martí",
      "lat": 39.472524,
      "lon": -0.374668,
      "fame_score": 7,
      "name_es": "Museo Nacional de Cerámica y Artes Suntuarias González Martí",
      "name_ca": "Museu Nacional de Ceràmica i de les Arts Sumptuàries González Martí",
      "categories": [
        "tourism=museum"
      ],
      "wikipedia": "ca:Museu Nacional de Ceràmica i de les Arts Sumptuàries «González Martí»",
      "wikidata": "Q9046886",
      "address": "Carrer del Poeta Querol, 2, València",
      "osm_type": "node",
      "osm_id": 5126811958
    },
    {
      "name": "Castillo de Macastre",
      "lat": 39.37949,
      "lon": -0.788962,
      "fame_score": 7,
      "name_es": "Castillo de Macastre",
      "name_ca": "Castell de Macastre",
      "name_en": "Castle of Macastre",
      "categories": [
        "historic=castle",
        "tourism=attraction"
      ],
      "wikipedia": "es:Castillo de Macastre",
      "wikidata": "Q5757419",
      "osm_type": "node",
      "osm_id": 6443847329
    },
    {
      "name": "Castell de Montesa",
      "lat": 38.951544,
      "lon": -0.65257,
      "fame_score": 7,
      "name_es": "Castillo de Montesa",
      "name_ca": "Castell de Montesa",
      "categories": [
        "historic=castle"
      ],
      "wikipedia": "ca:Castell de Montesa",
      "wikidata": "Q528520",
      "osm_type": "node",
      "osm_id": 10836841673
    },
    {
      "name": "Institut Valencià d'Art Modern",
      "lat": 39.479614,
      "lon": -0.382869,
      "fame_score": 7,
      "name_es": "Instituto Valenciano de Arte Moderno",
      "name_ca": "Institut Valencià d'Art Modern",
      "name_en": "Valencian Institute of Modern Art",
      "categories": [
        "tourism=museum"
      ],
      "wikipedia": "es:Instituto Valenciano de Arte Moderno",
      "wikidata": "Q1600831",
      "address": "Carrer de Guillem de Castro, 118, València",
      "osm_type": "node",
      "osm_id": 13198848139
    },
    {
      "name": "la Illeta dels Banyets",
      "lat": 38.432085,
      "lon": -0.381517,
      "fame_score": 7,
      "name_ca": "la Illeta dels Banyets",
      "categories": [
        "historic=archaeological_site",
        "tourism=attraction"
      ],
      "description": "Es tracta d'un jaciment on s'han trobat nivells de l'edat del bronze antic i tardà, nivells ibèrics i romans.",
      "wikipedia": "ca:Illeta dels Banyets",
      "wikidata": "Q1590778",
      "osm_type": "way",
      "osm_id": 25867515
    },
    {
      "name": "Palacio Episcopal de Orihuela",
      "lat": 38.085448,
      "lon": -0.946616,
      "fame_score": 7,
      "name_ca": "Palau Episcopal d'Oriola",
      "name_en": "Orihuela' Bishop Palace",
      "categories": [
        "historic=manor",
        "building=yes"
      ],
      "wikipedia": "es:Palacio Episcopal de Orihuela",
      "wikidata": "Q9054356",
      "osm_type": "way",
      "osm_id": 54434553
    },
    {
      "name": "Palau d'Altamira",
      "lat": 38.267977,
      "lon": -0.698634,
      "fame_score": 7,
      "name_es": "Palacio de Altamira",
      "name_ca": "Palau d'Altamira",
      "categories": [
        "historic=castle",
        "tourism=attraction",
        "building=yes"
      ],
      "wikipedia": "ca:Palau d'Altamira",
      "wikidata": "Q3751737",
      "osm_type": "way",
      "osm_id": 75379489
    },
    {
      "name": "Torre de la Calaforra",
      "lat": 38.26717,
      "lon": -0.696782,
      "fame_score": 7,
      "name_es": "Torre de la Calahorra",
      "name_ca": "Torre de la Calaforra",
      "categories": [
        "historic=castle",
        "tourism=attraction",
        "building=yes"
      ],
      "wikipedia": "ca:Torre de la Calaforra (Elx)",
      "wikidata": "Q6150536",
      "osm_type": "way",
      "osm_id": 100657328
    },
    {
      "name": "Capella del col·legi El Ave María",
      "lat": 39.50097,
      "lon": -0.423385,
      "fame_score": 7,
      "name_es": "Capilla del colegio El Ave María",
      "name_ca": "Capella del col·legi El Ave María",
      "name_en": "Chapel of El Ave María school",
      "categories": [
        "amenity=place_of_worship",
        "building=church"
      ],
      "wikidata": "Q93275283",
      "architect": "Manuel Peris Ferrando",
      "address": "Carrer del Campament, 57, València",
      "religion": "christian",
      "denomination": "catholic",
      "osm_type": "way",
      "osm_id": 220262964
    },
    {
      "name": "Torre de La Mata",
      "lat": 38.026344,
      "lon": -0.652531,
      "fame_score": 7,
      "name_ca": "Torre de La Mata",
      "categories": [
        "historic=castle",
        "tourism=attraction",
        "building=yes",
        "man_made=tower"
      ],
      "wikipedia": "es:Torre de La Mata",
      "wikidata": "Q6150418",
      "osm_type": "way",
      "osm_id": 410285374
    },
    {
      "name": "Torre de les Escaletes",
      "lat": 38.192555,
      "lon": -0.528779,
      "fame_score": 7,
      "name_ca": "Torre de les Escaletes",
      "categories": [
        "historic=castle",
        "tourism=attraction",
        "building=yes",
        "man_made=tower"
      ],
      "wikipedia": "es:Torre de Escaletes",
      "wikidata": "Q6150393",
      "osm_type": "way",
      "osm_id": 438443377
    },
    {
      "name": "les Drassanes del Grau",
      "lat": 39.461295,
      "lon": -0.33362,
      "fame_score": 7,
      "name_es": "Atarazanas",
      "name_ca": "les Drassanes del Grau",
      "categories": [
        "historic=building",
        "tourism=museum"
      ],
      "wikipedia": "ca:Drassanes del Grau",
      "address": "Plaça de Joan Antoni Benlliure, València",
      "osm_type": "way",
      "osm_id": 512378878
    },
    {
      "name": "Museu d'Història de València",
      "lat": 39.472575,
      "lon": -0.408252,
      "fame_score": 7,
      "name_es": "Museo de Historia de Valencia",
      "name_ca": "Museu d'Història de València",
      "name_en": "Valencia History Museum",
      "categories": [
        "tourism=museum",
        "building=yes"
      ],
      "wikipedia": "ca:Museu d'història de València",
      "wikidata": "Q9047049",
      "address": "Carrer de València, 42, Mislata",
      "osm_type": "way",
      "osm_id": 514898814
    },
    {
      "name": "Castell de Castro",
      "lat": 39.859566,
      "lon": -0.279726,
      "fame_score": 7,
      "name_es": "Castillo de Castro",
      "name_ca": "Castell de Castro",
      "categories": [
        "historic=castle",
        "building=yes"
      ],
      "wikipedia": "es:Castillo de Castro",
      "wikidata": "Q8342250",
      "osm_type": "way",
      "osm_id": 564100243
    },
    {
      "name": "Museo del Chocolate Valor",
      "lat": 38.511675,
      "lon": -0.235451,
      "fame_score": 7,
      "name_es": "Museo del Chocolate Valor",
      "name_ca": "Museu de la Xocolata Valor",
      "name_en": "Valor Chocolate Museum",
      "categories": [
        "tourism=museum",
        "building=yes"
      ],
      "wikipedia": "es:Museo del chocolate Valor",
      "wikidata": "Q6034523",
      "osm_type": "way",
      "osm_id": 565774127
    },
    {
      "name": "Palau islàmic",
      "lat": 38.985507,
      "lon": -0.518599,
      "fame_score": 7,
      "name_es": "Ruinas del Palacio Islamico",
      "name_ca": "Palau islàmic",
      "name_en": "Islamic Palace",
      "categories": [
        "historic=archaeological_site"
      ],
      "osm_type": "way",
      "osm_id": 574700963
    },
    {
      "name": "Parroquia de la Misericordia",
      "lat": 38.351737,
      "lon": -0.48352,
      "fame_score": 7,
      "name_es": "Parroquia de la Misericordia",
      "name_ca": "Parróquia de la Misericórdia",
      "name_en": "Misericordia Church",
      "categories": [
        "amenity=place_of_worship",
        "building=church"
      ],
      "wikipedia": "ca:La Misericòrdia d'Alacant",
      "wikidata": "Q10975004",
      "religion": "christian",
      "denomination": "catholic",
      "osm_type": "way",
      "osm_id": 1267691583
    },
    {
      "name": "Cabezo Redondo",
      "lat": 38.64342,
      "lon": -0.890775,
      "fame_score": 7,
      "name_es": "Cabezo Redondo",
      "name_ca": "Cabezo Redondo",
      "name_en": "Cabezo Redondo",
      "categories": [
        "historic=archaeological_site"
      ],
      "wikipedia": "es:Cabezo Redondo",
      "wikidata": "Q8254441",
      "osm_type": "way",
      "osm_id": 1347356010
    },
    {
      "name": "Palau Ducal dels Borja",
      "osm_type": "relation",
      "osm_id": 5940326,
      "categories": [
        "historic=castle",
        "tourism=museum",
        "building=palace"
      ],
      "fame_score": 7,
      "wikipedia": "en:Ducal Palace of Gandia",
      "wikidata": "Q549063",
      "needs_geocoding": true
    },
    {
      "name": "Museu de Belles Arts de València",
      "osm_type": "relation",
      "osm_id": 11026210,
      "categories": [
        "tourism=museum",
        "building=public"
      ],
      "fame_score": 7,
      "wikipedia": "es:Museo de Bellas Artes de Valencia",
      "wikidata": "Q1748404",
      "needs_geocoding": true
    },
    {
      "name": "Cova del Canelobre",
      "lat": 38.510497,
      "lon": -0.411787,
      "fame_score": 6,
      "name_es": "Cuevas del Canelobre",
      "name_ca": "Cova del Canelobre",
      "categories": [
        "tourism=attraction"
      ],
      "wikipedia": "ca:Cova dels Canelobres",
      "wikidata": "Q2480874",
      "osm_type": "node",
      "osm_id": 391257456
    },
    {
      "name": "Cova Negra",
      "lat": 38.965171,
      "lon": -0.496566,
      "fame_score": 6,
      "name_ca": "Cova Negra",
      "categories": [
        "historic=archaeological_site"
      ],
      "wikipedia": "es:La Cova Negra",
      "wikidata": "Q9018453",
      "osm_type": "node",
      "osm_id": 1699791614
    },
    {
      "name": "Museu d'Art Contemporani Vicente Aguilera Cerni",
      "lat": 40.113912,
      "lon": -0.054127,
      "fame_score": 6,
      "name_es": "Museo de Arte Contemporáneo Vicente Aguilera Cerni",
      "name_ca": "Museu d'Art Contemporani Vicente Aguilera Cerni",
      "categories": [
        "tourism=museum"
      ],
      "wikipedia": "ca:Museu d'Art Contemporani de Vilafamés",
      "wikidata": "Q11694572",
      "address": "Calle Diputación, 20, Vilafamés",
      "osm_type": "node",
      "osm_id": 3159240101
    },
    {
      "name": "Museo del Mar y de la Sal",
      "lat": 37.976831,
      "lon": -0.684361,
      "fame_score": 6,
      "name_ca": "Museu del Mar i de la Sal",
      "categories": [
        "tourism=museum"
      ],
      "wikipedia": "es:Museo del Mar y de la Sal",
      "wikidata": "Q6034460",
      "address": "Calle Patricio Pérez, 10, Torrevieja",
      "osm_type": "node",
      "osm_id": 4303817890
    },
    {
      "name": "Homenatge a les Brigades Internacionals",
      "lat": 40.055581,
      "lon": 0.081177,
      "fame_score": 6,
      "name_es": "Homenaje a las Brigadas Internacionales",
      "name_ca": "Homenatge a les Brigades Internacionals",
      "name_en": "Tribute to the International Brigades",
      "categories": [
        "historic=memorial"
      ],
      "year": "2016-10-24",
      "osm_type": "node",
      "osm_id": 5824523726
    },
    {
      "name": "Museu d'Informàtica",
      "lat": 39.482659,
      "lon": -0.348422,
      "fame_score": 6,
      "name_es": "Museo de Informática",
      "name_ca": "Museu d'Informàtica",
      "name_en": "Museum of Informatics",
      "categories": [
        "tourism=museum"
      ],
      "wikidata": "Q96657803",
      "address": "Camí de Vera, València",
      "osm_type": "node",
      "osm_id": 7600453744
    },
    {
      "name": "Paretetes dels Moros",
      "lat": 39.557406,
      "lon": -0.391415,
      "fame_score": 6,
      "name_ca": "Paretetes dels Moros",
      "name_en": "Paretetes dels Moros",
      "categories": [
        "historic=archaeological_site"
      ],
      "wikipedia": "ca:Les Paretetes dels Moros",
      "wikidata": "Q20107036",
      "osm_type": "node",
      "osm_id": 12453650834
    },
    {
      "name": "Mestalla",
      "lat": 39.474423,
      "lon": -0.358188,
      "fame_score": 6,
      "name_es": "Mestalla",
      "name_ca": "Mestalla",
      "categories": [
        "leisure=stadium"
      ],
      "wikipedia": "es:Estadio de Mestalla",
      "wikidata": "Q202762",
      "address": "Avinguda de Suècia, València",
      "osm_type": "way",
      "osm_id": 8082830
    },
    {
      "name": "Mercat de Colón",
      "lat": 39.468932,
      "lon": -0.368411,
      "fame_score": 6,
      "name_es": "Mercado de Colón",
      "name_ca": "Mercat de Colón",
      "categories": [
        "historic=building",
        "amenity=marketplace",
        "building=yes"
      ],
      "wikipedia": "ca:Mercat de Colom",
      "wikidata": "Q3393246",
      "architect": "Francisco Mora",
      "style": "art_nouveau",
      "address": "Carrer de Jorge Juan, 19, València",
      "osm_type": "way",
      "osm_id": 10120283
    },
    {
      "name": "Palau Velòdrom Lluís Puig",
      "lat": 39.500633,
      "lon": -0.427292,
      "fame_score": 6,
      "name_es": "Palacio Velódromo Luis Puig",
      "name_ca": "Palau Velòdrom Lluís Puig",
      "categories": [
        "building=yes",
        "leisure=stadium"
      ],
      "wikipedia": "es:Palacio Velódromo Luis Puig",
      "wikidata": "Q3312208",
      "address": "Carrer de Cocentaina, 4, València",
      "osm_type": "way",
      "osm_id": 13075716
    },
    {
      "name": "Museu Valencià de la Il·lustració i de la Modernitat",
      "lat": 39.469651,
      "lon": -0.38127,
      "fame_score": 6,
      "name_es": "Museo Valenciano de la Ilustración y la Modernidad",
      "name_ca": "Museu Valencià de la Il·lustració i de la Modernitat",
      "categories": [
        "tourism=museum",
        "building=yes"
      ],
      "wikipedia": "ca:Museu Valencià de la Il·lustració i de la Modernitat",
      "wikidata": "Q7883975",
      "address": "Carrer de Quevedo, 10, València",
      "osm_type": "way",
      "osm_id": 15218690
    },
    {
      "name": "Castell de Santa Bàrbara",
      "lat": 38.348895,
      "lon": -0.478307,
      "fame_score": 6,
      "name_es": "Castillo de Santa Bárbara",
      "name_ca": "Castell de la Santa Bàrbara",
      "categories": [
        "historic=castle",
        "tourism=attraction"
      ],
      "wikipedia": "ca:Castell de Santa Bàrbara",
      "wikidata": "Q429562",
      "osm_type": "way",
      "osm_id": 20490181
    },
    {
      "name": "Parc de Canalejas",
      "lat": 38.340595,
      "lon": -0.487306,
      "fame_score": 6,
      "name_es": "Parque de Canalejas",
      "name_ca": "Parc de Canalejas",
      "categories": [
        "leisure=park"
      ],
      "wikipedia": "es:Parque de Canalejas",
      "wikidata": "Q11071719",
      "osm_type": "way",
      "osm_id": 20490189
    },
    {
      "name": "Parc del Palmeral",
      "lat": 38.322387,
      "lon": -0.513885,
      "fame_score": 6,
      "name_es": "Parque el Palmeral",
      "name_ca": "Parc del Palmeral",
      "categories": [
        "leisure=park"
      ],
      "wikipedia": "es:El Palmeral",
      "wikidata": "Q5826028",
      "osm_type": "way",
      "osm_id": 22749780
    },
    {
      "name": "Plaça dels Estels",
      "lat": 38.346005,
      "lon": -0.490711,
      "fame_score": 6,
      "name_es": "Plaza de los Luceros",
      "name_ca": "Plaça dels Estels",
      "categories": [
        "tourism=attraction",
        "leisure=garden"
      ],
      "wikipedia": "es:Plaza de los Luceros",
      "wikidata": "Q9060985",
      "osm_type": "way",
      "osm_id": 22780080
    },
    {
      "name": "Palau de Congressos",
      "lat": 39.496125,
      "lon": -0.402014,
      "fame_score": 6,
      "name_es": "Palacio de Congresos",
      "name_ca": "Palau de Congressos",
      "categories": [
        "amenity=conference_centre",
        "building=civic"
      ],
      "wikipedia": "ca:Palau de Congressos de València",
      "wikidata": "Q9054458",
      "architect": "Foster & Partners",
      "year": "1998",
      "address": "Avinguda de les Corts Valencianes, 60",
      "osm_type": "way",
      "osm_id": 23761809
    },
    {
      "name": "Parc de lo Morant",
      "lat": 38.369864,
      "lon": -0.490479,
      "fame_score": 6,
      "name_es": "Parque Lo Morant",
      "name_ca": "Parc de lo Morant",
      "categories": [
        "leisure=park"
      ],
      "wikipedia": "es:Parque Lo Morant",
      "wikidata": "Q15617896",
      "osm_type": "way",
      "osm_id": 23902518
    },
    {
      "name": "Banys de la Reina",
      "lat": 38.641537,
      "lon": 0.060628,
      "fame_score": 6,
      "name_es": "Baños de la Reina",
      "name_ca": "Banys de la Reina",
      "categories": [
        "historic=archaeological_site"
      ],
      "wikipedia": "ca:Banys de la Reina (Calp)",
      "wikidata": "Q42652325",
      "osm_type": "way",
      "osm_id": 43076294
    },
    {
      "name": "Far de Tabarca",
      "lat": 38.164081,
      "lon": -0.471155,
      "fame_score": 6,
      "name_es": "Faro de Tabarca",
      "name_ca": "Far de Tabarca",
      "categories": [
        "building=yes",
        "man_made=lighthouse"
      ],
      "wikipedia": "es:Faro de Tabarca",
      "wikidata": "Q8960914",
      "osm_type": "way",
      "osm_id": 43376799
    },
    {
      "name": "Iglesia San Martín Obispo",
      "lat": 38.122746,
      "lon": -0.879106,
      "fame_score": 6,
      "name_ca": "Església de Sant Martí",
      "categories": [
        "amenity=place_of_worship",
        "building=church"
      ],
      "wikipedia": "es:Iglesia de San Martín (Callosa de Segura)",
      "wikidata": "Q3053075",
      "religion": "christian",
      "denomination": "catholic",
      "osm_type": "way",
      "osm_id": 43833250
    },
    {
      "name": "Universitat Jaume I",
      "lat": 39.993399,
      "lon": -0.070706,
      "fame_score": 6,
      "name_es": "Universidad Jaume I",
      "name_ca": "Universitat Jaume I",
      "name_en": "Jaume I University",
      "categories": [
        "amenity=university"
      ],
      "wikipedia": "es:Universidad Jaime I",
      "wikidata": "Q29718",
      "address": "Avinguda de Vicent Sos Baynat, Castellón de la Plana",
      "osm_type": "way",
      "osm_id": 46835092
    },
    {
      "name": "Museu Arqueològic i d'Història d'Elx (MAHE)",
      "lat": 38.26822,
      "lon": -0.69766,
      "fame_score": 6,
      "name_es": "Museo Arqueológico y de Historia de Elche (MAHE)",
      "name_ca": "Museu Arqueològic i d'Història d'Elx (MAHE)",
      "categories": [
        "tourism=museum",
        "building=public"
      ],
      "wikipedia": "ca:Museu Arqueològic i d'Història d'Elx",
      "wikidata": "Q1954226",
      "osm_type": "way",
      "osm_id": 75379502
    },
    {
      "name": "Estació de Crevillent",
      "lat": 38.224503,
      "lon": -0.781596,
      "fame_score": 6,
      "name_es": "Estación de Crevillente",
      "name_ca": "Estació de Crevillent",
      "categories": [
        "building=train_station"
      ],
      "wikipedia": "es:Estación de Crevillente",
      "wikidata": "Q8779676",
      "osm_type": "way",
      "osm_id": 107667764
    },
    {
      "name": "Estació d'Autobusos de València",
      "lat": 39.480501,
      "lon": -0.38772,
      "fame_score": 6,
      "name_es": "Estación de Autobuses de València",
      "name_ca": "Estació d'Autobusos de València",
      "name_en": "Valencia Bus Station",
      "categories": [
        "building=yes"
      ],
      "wikipedia": "ca:Estació d'Autobusos de València",
      "wikidata": "Q17602517",
      "osm_type": "way",
      "osm_id": 143031540
    },
    {
      "name": "Església dels Sants Joans",
      "lat": 39.474197,
      "lon": -0.379393,
      "fame_score": 6,
      "name_es": "Iglesia de los Santos Juanes",
      "name_ca": "Església dels Sants Joans",
      "name_en": "Royal Parish of the St Johns",
      "categories": [
        "amenity=place_of_worship",
        "building=church"
      ],
      "wikipedia": "ca:Església de Sant Joan del Mercat",
      "wikidata": "Q3393224",
      "religion": "christian",
      "denomination": "roman_catholic",
      "osm_type": "way",
      "osm_id": 183237709
    },
    {
      "name": "Estació d'Autobusos de Guardamar",
      "lat": 38.087951,
      "lon": -0.656097,
      "fame_score": 6,
      "name_es": "Estación de Autobuses de Guardamar",
      "name_ca": "Estació d'Autobusos de Guardamar",
      "name_en": "Bus Station",
      "categories": [
        "amenity=bus_station",
        "building=yes"
      ],
      "osm_type": "way",
      "osm_id": 184918562
    },
    {
      "name": "Monestir de Santa María de la Murta",
      "lat": 39.128899,
      "lon": -0.361063,
      "fame_score": 6,
      "name_es": "Monasterio de Santa María de la Murta",
      "name_ca": "Monestir de Santa María de la Murta",
      "name_en": "Santa María de la Murta Monastery",
      "categories": [
        "historic=monastery",
        "building=ruins"
      ],
      "wikipedia": "es:Monasterio de La Murta",
      "wikidata": "Q9034345",
      "osm_type": "way",
      "osm_id": 185482997
    },
    {
      "name": "Banys de l'Almirall",
      "lat": 39.47487,
      "lon": -0.373417,
      "fame_score": 6,
      "name_ca": "Banys de l'Almirall",
      "categories": [
        "historic=archaeological_site",
        "building=yes"
      ],
      "wikipedia": "ca:Banys de l'Almirall",
      "wikidata": "Q511925",
      "osm_type": "way",
      "osm_id": 218841695
    },
    {
      "name": "Ajuntament d'Alacant",
      "lat": 38.345299,
      "lon": -0.481238,
      "fame_score": 6,
      "name_es": "Ayuntamiento de Alicante",
      "name_ca": "Ajuntament d'Alacant",
      "name_en": "Town Hall of Alicante City",
      "categories": [
        "amenity=townhall",
        "building=yes"
      ],
      "wikipedia": "ca:Ajuntament d'Alacant",
      "wikidata": "Q5573377",
      "osm_type": "way",
      "osm_id": 265207919
    },
    {
      "name": "Escola Politècnica Superior d'Alcoi",
      "lat": 38.694575,
      "lon": -0.476729,
      "fame_score": 6,
      "name_es": "Escuela Politécnica Superior de Alcoy",
      "name_ca": "Escola Politècnica Superior d'Alcoi",
      "name_en": "Higher Polytechnic School of Alcoi",
      "categories": [
        "amenity=university"
      ],
      "wikipedia": "ca:Escola Politècnica Superior d'Alcoi",
      "wikidata": "Q8778179",
      "address": "Placeta Ferrandiz i Carbonell, Alcoi / Alcoy",
      "osm_type": "way",
      "osm_id": 300295916
    },
    {
      "name": "Església de Sant Jordi",
      "lat": 38.6993,
      "lon": -0.474198,
      "fame_score": 6,
      "name_es": "Iglesia de San Jorge",
      "name_ca": "Església de Sant Jordi",
      "categories": [
        "amenity=place_of_worship",
        "building=church"
      ],
      "wikipedia": "ca:Església de Sant Jordi d'Alcoi",
      "wikidata": "Q11682844",
      "architect": "Timoteo Briet Montaud",
      "year": "1921",
      "religion": "christian",
      "denomination": "catholic",
      "osm_type": "way",
      "osm_id": 301394122
    },
    {
      "name": "Puurnatuur",
      "lat": 38.747047,
      "lon": -0.016766,
      "fame_score": 6,
      "name_es": "Puurnatuur",
      "name_ca": "Puurnatuur",
      "name_en": "Puurnatuur",
      "categories": [
        "tourism=guest_house",
        "building=yes"
      ],
      "address": "Camí del Riurau, 6",
      "osm_type": "way",
      "osm_id": 312098847
    },
    {
      "name": "Torre del Castell de Torrent",
      "lat": 39.436495,
      "lon": -0.463453,
      "fame_score": 6,
      "name_es": "Torre del Castillo de Torrent",
      "name_ca": "Torre del Castell de Torrent",
      "categories": [
        "historic=castle",
        "building=yes"
      ],
      "description": "Edificio militar de interés etnológico y arquitectónico",
      "wikipedia": "es:Torre del Castillo de Torrente",
      "wikidata": "Q6150640",
      "osm_type": "way",
      "osm_id": 333759081
    },
    {
      "name": "Escola Oficial d'Idiomes València - Saïdia",
      "lat": 39.483142,
      "lon": -0.381487,
      "fame_score": 6,
      "name_es": "Escuela oficial de idiomas Valencia",
      "name_ca": "Escola Oficial d'Idiomes de València",
      "name_en": "Official Language School",
      "categories": [
        "amenity=language_school",
        "building=yes"
      ],
      "wikidata": "Q108140203",
      "address": "Carrer del Pla de la Saïdia, 19, València",
      "osm_type": "way",
      "osm_id": 409874707
    },
    {
      "name": "Castillo de Santa Bárbara",
      "lat": 38.137857,
      "lon": -0.883058,
      "fame_score": 6,
      "name_ca": "Castell de Coix",
      "categories": [
        "historic=ruins"
      ],
      "wikipedia": "es:Cox#Castillo de Cox",
      "wikidata": "Q4896478",
      "osm_type": "way",
      "osm_id": 425006224
    },
    {
      "name": "Castell de la Mola",
      "lat": 38.408435,
      "lon": -0.792857,
      "fame_score": 6,
      "name_ca": "Castell de la Mola",
      "name_en": "Mola Castle",
      "categories": [
        "historic=castle",
        "building=yes"
      ],
      "wikipedia": "ca:Castell de la Mola",
      "wikidata": "Q5801636",
      "osm_type": "way",
      "osm_id": 429777278
    },
    {
      "name": "Castell de Corbera",
      "lat": 39.154957,
      "lon": -0.352848,
      "fame_score": 6,
      "name_ca": "Castell de Corbera",
      "categories": [
        "historic=castle",
        "building=yes"
      ],
      "wikipedia": "ca:Castell de Corbera (Ribera Baixa)",
      "wikidata": "Q28856261",
      "osm_type": "way",
      "osm_id": 438037532
    },
    {
      "name": "Museu Faller",
      "lat": 39.45883,
      "lon": -0.359075,
      "fame_score": 6,
      "name_es": "Museo Fallero",
      "name_ca": "Museu Faller",
      "categories": [
        "tourism=museum",
        "building=yes"
      ],
      "wikipedia": "ca:Museu Faller de València",
      "wikidata": "Q27924428",
      "address": "Plaça Montolivet, 4, València",
      "osm_type": "way",
      "osm_id": 444067498
    },
    {
      "name": "Edifici de Correus i Telègrafs",
      "lat": 39.469435,
      "lon": -0.375396,
      "fame_score": 6,
      "name_es": "Edificio de Correos y Telégrafos",
      "name_ca": "Edifici de Correus i Telègrafs",
      "categories": [
        "historic=building",
        "building=public"
      ],
      "wikipedia": "ca:Edifici de Correus (València)",
      "wikidata": "Q21711039",
      "architect": "Miguel Ángel Navarro",
      "year": "1915",
      "osm_type": "way",
      "osm_id": 513696236
    },
    {
      "name": "Església de Sant Nicolau",
      "lat": 39.476183,
      "lon": -0.378793,
      "fame_score": 6,
      "name_es": "Iglesia Parroquial de San Nicolas",
      "name_ca": "Església de Sant Nicolau",
      "name_en": "Church of Sant Nicolau de Bari and Sant Pere Màrtir",
      "categories": [
        "amenity=place_of_worship",
        "building=church"
      ],
      "wikipedia": "ca:Església de Sant Nicolau (València)",
      "wikidata": "Q9007252",
      "address": "Carrer dels Cavallers, 35, València",
      "religion": "christian",
      "denomination": "catholic",
      "osm_type": "way",
      "osm_id": 514601809
    },
    {
      "name": "Església de Sant Pere i Sant Pau",
      "lat": 38.167097,
      "lon": -0.482218,
      "fame_score": 6,
      "name_es": "Iglesia de San Pedro y San Pablo",
      "name_ca": "Església de Sant Pere i Sant Pau",
      "categories": [
        "amenity=place_of_worship",
        "building=church"
      ],
      "wikipedia": "ca:Sant Pere i Sant Pau de Tabarca",
      "wikidata": "Q6446907",
      "address": "Carrer de l'Església, 1, Tabarca",
      "religion": "christian",
      "denomination": "roman_catholic",
      "osm_type": "way",
      "osm_id": 559969754
    },
    {
      "name": "Ermita de Sant Nicolau de Bari",
      "lat": 39.987946,
      "lon": -0.038773,
      "fame_score": 6,
      "name_es": "Ermita de San Nicolás de Bari",
      "name_ca": "Ermita de Sant Nicolau de Bari",
      "name_en": "Chapel of Sant Nicolau de Bari",
      "categories": [
        "amenity=place_of_worship",
        "building=yes"
      ],
      "wikipedia": "ca:Ermita de Sant Nicolau de Bari (Castelló de la Plana)",
      "wikidata": "Q26630441",
      "religion": "christian",
      "denomination": "roman_catholic",
      "osm_type": "way",
      "osm_id": 729159444
    },
    {
      "name": "Castillo de Tous",
      "lat": 39.152867,
      "lon": -0.666306,
      "fame_score": 6,
      "name_ca": "Castell de Tous",
      "categories": [
        "historic=castle",
        "building=yes"
      ],
      "wikipedia": "ca:Castell de Tous",
      "wikidata": "Q165434",
      "osm_type": "way",
      "osm_id": 744487169
    },
    {
      "name": "Castell de Xixona",
      "lat": 38.53836,
      "lon": -0.509032,
      "fame_score": 6,
      "name_es": "Castillo de Xixona",
      "name_ca": "Castell de Xixona",
      "name_en": "Castle of Xixona",
      "categories": [
        "historic=castle"
      ],
      "wikidata": "Q43159814",
      "osm_type": "way",
      "osm_id": 858964221
    },
    {
      "name": "Poblado ibérico de la Muela de Arriba",
      "lat": 39.446582,
      "lon": -1.269802,
      "fame_score": 6,
      "name_es": "Poblado ibérico de la Muela de Arriba",
      "name_ca": "Poblat íber de la Muela de Arriba",
      "categories": [
        "historic=archaeological_site"
      ],
      "wikipedia": "es:Poblado Ibérico de la Muela de Arriba",
      "wikidata": "Q6081039",
      "osm_type": "way",
      "osm_id": 1176533052
    },
    {
      "name": "Poblado Ibérico del Pico de los Ajos",
      "lat": 39.325898,
      "lon": -0.95003,
      "fame_score": 6,
      "name_es": "Poblado Ibérico del Pico de los Ajos",
      "name_ca": "Poblat Ibèric del Pico de los Ajos",
      "categories": [
        "historic=archaeological_site"
      ],
      "wikipedia": "es:Poblado ibérico del Pico de los Ajos",
      "wikidata": "Q6081036",
      "osm_type": "way",
      "osm_id": 1176539089
    },
    {
      "name": "Castell de Santa Pola",
      "osm_type": "relation",
      "osm_id": 174305,
      "categories": [
        "historic=castle",
        "tourism=attraction",
        "building=yes"
      ],
      "fame_score": 6,
      "wikipedia": "es:Castillo-Fortaleza de Santa Pola",
      "wikidata": "Q5494439",
      "needs_geocoding": true
    },
    {
      "name": "Plaça de la Mare de Déu",
      "osm_type": "relation",
      "osm_id": 7893046,
      "categories": [
        "tourism=attraction"
      ],
      "fame_score": 6,
      "wikipedia": "ca:Plaça de la Mare de Déu",
      "wikidata": "Q1779244",
      "needs_geocoding": true
    },
    {
      "name": "Castillo de Orihuela",
      "osm_type": "relation",
      "osm_id": 8474604,
      "categories": [
        "historic=castle",
        "tourism=attraction"
      ],
      "fame_score": 6,
      "wikipedia": "es:Castillo de Orihuela",
      "wikidata": "Q4896456",
      "needs_geocoding": true
    },
    {
      "name": "Torre de Tamarit",
      "osm_type": "relation",
      "osm_id": 9736383,
      "categories": [
        "historic=tower",
        "tourism=attraction",
        "building=yes"
      ],
      "fame_score": 6,
      "wikipedia": "es:Torre de Tamarit",
      "wikidata": "Q9088946",
      "needs_geocoding": true
    },
    {
      "name": "Alqueria de la Torre dels Pares",
      "osm_type": "relation",
      "osm_id": 10992940,
      "categories": [
        "historic=manor",
        "building=yes"
      ],
      "fame_score": 6,
      "wikipedia": "es:Alquería fortificada Torre dels Pares",
      "wikidata": "Q5692294",
      "needs_geocoding": true
    },
    {
      "name": "Palau de Vivanco",
      "osm_type": "relation",
      "osm_id": 19854479,
      "categories": [
        "historic=manor",
        "building=yes"
      ],
      "fame_score": 6,
      "wikipedia": "ca:Casa Vivanco (Catarroja)",
      "wikidata": "Q5754562",
      "needs_geocoding": true
    },
    {
      "name": "Església de la Nativitat",
      "lat": 39.940403,
      "lon": -0.061998,
      "fame_score": 5,
      "name_es": "Iglesia de la Natividad de Nuestra Señora",
      "name_ca": "Església de la Nativitat",
      "categories": [
        "amenity=place_of_worship"
      ],
      "wikipedia": "ca:Església de la Nativitat d'Almassora",
      "wikidata": "Q9007644",
      "religion": "christian",
      "denomination": "catholic",
      "osm_type": "node",
      "osm_id": 244209751
    },
    {
      "name": "Arc de Cabanes",
      "lat": 40.165557,
      "lon": 0.014802,
      "fame_score": 5,
      "name_es": "Arco romano de Cabanes",
      "name_ca": "Arc de Cabanes",
      "categories": [
        "historic=memorial"
      ],
      "wikipedia": "es:Arco romano de Cabanes",
      "wikidata": "Q930753",
      "osm_type": "node",
      "osm_id": 276945298
    },
    {
      "name": "Creu del Bartolo",
      "lat": 40.084832,
      "lon": 0.027576,
      "fame_score": 5,
      "name_es": "Cruz del Bartolo",
      "name_ca": "Creu del Bartolo",
      "categories": [
        "historic=wayside_cross",
        "tourism=attraction"
      ],
      "wikipedia": "es:Cruz de Bartolo",
      "wikidata": "Q13377218",
      "year": "1902-10-26",
      "religion": "christian",
      "denomination": "roman_catholic",
      "osm_type": "node",
      "osm_id": 283206849
    },
    {
      "name": "Castillo de la Atalaya",
      "lat": 38.631934,
      "lon": -0.860915,
      "fame_score": 5,
      "name_ca": "Castell de la Talaia",
      "categories": [
        "historic=castle",
        "tourism=attraction"
      ],
      "wikipedia": "es:Castillo de la Atalaya",
      "wikidata": "Q2986978",
      "osm_type": "node",
      "osm_id": 306347007
    },
    {
      "name": "Far del Cap de l'Horta",
      "lat": 38.352984,
      "lon": -0.404856,
      "fame_score": 5,
      "name_es": "Faro del Cap de l'Horta",
      "name_ca": "Far del Cap de l'Horta",
      "categories": [
        "man_made=lighthouse"
      ],
      "wikipedia": "ca:Far del Cap de l'Horta",
      "wikidata": "Q29982274",
      "osm_type": "node",
      "osm_id": 390728471
    },
    {
      "name": "Cruz de los Caídos",
      "lat": 38.343291,
      "lon": -0.488713,
      "fame_score": 5,
      "name_es": "Cruz de los Caídos",
      "name_ca": "Creu dels Caiguts",
      "categories": [
        "historic=memorial"
      ],
      "wikipedia": "ca:Creu dels Caiguts",
      "wikidata": "Q5792466",
      "osm_type": "node",
      "osm_id": 430767612
    },
    {
      "name": "Monument als Pensionistes",
      "lat": 38.363031,
      "lon": -0.410219,
      "fame_score": 5,
      "name_es": "Monumento a los Pensionistas",
      "name_ca": "Monument als Pensionistes",
      "name_en": "Monument to Senior Citizens",
      "categories": [
        "tourism=artwork"
      ],
      "osm_type": "node",
      "osm_id": 663334823
    },
    {
      "name": "Tossal de la Cala",
      "lat": 38.525043,
      "lon": -0.161538,
      "fame_score": 5,
      "name_ca": "Tossal de la Cala",
      "categories": [
        "tourism=viewpoint"
      ],
      "wikipedia": "ca:Tossal de la cala",
      "wikidata": "Q6151066",
      "osm_type": "node",
      "osm_id": 973811682
    },
    {
      "name": "Castell de Vilafamés",
      "lat": 40.112215,
      "lon": -0.05517,
      "fame_score": 5,
      "name_es": "Castillo de Villafamés",
      "name_ca": "Castell de Vilafamés",
      "categories": [
        "historic=castle",
        "tourism=attraction"
      ],
      "wikipedia": "ca:Castell de Vilafamés",
      "wikidata": "Q4892979",
      "osm_type": "node",
      "osm_id": 1126107177
    },
    {
      "name": "Castellet de la Murta",
      "lat": 38.452035,
      "lon": -0.608225,
      "fame_score": 5,
      "name_es": "Castillo de la Murta",
      "name_ca": "Castellet de la Murta",
      "categories": [
        "historic=ruins"
      ],
      "wikipedia": "es:Castillo de la Murta",
      "wikidata": "Q546824",
      "osm_type": "node",
      "osm_id": 1242138751
    },
    {
      "name": "Castell de la Todolella",
      "lat": 40.647612,
      "lon": -0.245991,
      "fame_score": 5,
      "name_es": "Castillo de Todolella",
      "name_ca": "Castell de la Todolella",
      "categories": [
        "historic=castle"
      ],
      "wikipedia": "es:Castillo de Todolella",
      "wikidata": "Q8342579",
      "year": "C14",
      "osm_type": "node",
      "osm_id": 1459075636
    },
    {
      "name": "Silla",
      "lat": 39.363205,
      "lon": -0.411262,
      "fame_score": 5,
      "name_ca": "Silla",
      "categories": [
        "tourism=yes"
      ],
      "wikipedia": "ca:Silla",
      "wikidata": "Q10843",
      "osm_type": "node",
      "osm_id": 1470839454
    },
    {
      "name": "Museu Almodí",
      "lat": 38.987857,
      "lon": -0.52182,
      "fame_score": 5,
      "name_es": "Museo del Almodí",
      "name_ca": "Museu Almodí",
      "categories": [
        "tourism=museum"
      ],
      "wikipedia": "ca:Almodí de Xàtiva",
      "wikidata": "Q8196155",
      "osm_type": "node",
      "osm_id": 1596068081
    },
    {
      "name": "Coves de Sant Josep",
      "lat": 39.824483,
      "lon": -0.252624,
      "fame_score": 5,
      "name_es": "Cuevas de San José",
      "name_ca": "Coves de Sant Josep",
      "categories": [
        "tourism=attraction"
      ],
      "wikipedia": "ca:Grutes de Sant Josep",
      "wikidata": "Q16572946",
      "address": "Paseo de Las Grutas, La Vall d'Uixó",
      "osm_type": "node",
      "osm_id": 1712834667
    },
    {
      "name": "Museu del Palmito d'Aldaia",
      "lat": 39.464939,
      "lon": -0.46245,
      "fame_score": 5,
      "name_ca": "Museu del Palmito d'Aldaia",
      "categories": [
        "tourism=museum"
      ],
      "wikipedia": "es:Museo del Palmito de Aldaya",
      "wikidata": "Q120776055",
      "address": "Carrer de l'Esglessia, 2, Aldaia",
      "osm_type": "node",
      "osm_id": 1759980424
    },
    {
      "name": "Museo Valenciano del Juguete",
      "lat": 38.625092,
      "lon": -0.573661,
      "fame_score": 5,
      "name_es": "Museo Valenciano del Juguete",
      "name_ca": "Museu Valencià del Joguet",
      "categories": [
        "tourism=museum"
      ],
      "wikipedia": "es:Museo Valenciano del Juguete",
      "wikidata": "Q9047144",
      "osm_type": "node",
      "osm_id": 1790366220
    },
    {
      "name": "Ermita de Santa Llúcia",
      "lat": 38.629299,
      "lon": -0.573291,
      "fame_score": 5,
      "name_es": "Ermita de Santa Lucía",
      "name_ca": "Ermita de Santa Llúcia",
      "categories": [
        "amenity=place_of_worship"
      ],
      "wikipedia": "ca:Ermita de Santa Llúcia (Ibi)",
      "wikidata": "Q57494804",
      "religion": "christian",
      "denomination": "catholic",
      "osm_type": "node",
      "osm_id": 1791532113
    },
    {
      "name": "Museu Etnològic de Dénia",
      "lat": 38.840607,
      "lon": 0.105982,
      "fame_score": 5,
      "name_es": "Museo Etnológico de Dénia",
      "name_ca": "Museu Etnològic de Dénia",
      "categories": [
        "tourism=museum"
      ],
      "wikipedia": "ca:Museu Etnològic de Dénia",
      "wikidata": "Q6034547",
      "address": "Carrer dels Cavallers, 1, Dénia",
      "osm_type": "node",
      "osm_id": 1989450534
    },
    {
      "name": "Casa Museo Modernista",
      "lat": 38.387008,
      "lon": -0.765519,
      "fame_score": 5,
      "name_ca": "Casa-Museu Modernista",
      "categories": [
        "tourism=museum"
      ],
      "wikipedia": "ca:Casa-Museu Modernista de Novelda",
      "wikidata": "Q49451068",
      "address": "calle Mayor, 24, Novelda",
      "osm_type": "node",
      "osm_id": 2318211088
    },
    {
      "name": "Santuari de la Mare de Déu del Llosar",
      "lat": 40.444499,
      "lon": -0.272784,
      "fame_score": 5,
      "name_es": "Ermita de la Virgen del Losar",
      "name_ca": "Santuari de la Mare de Déu del Llosar",
      "categories": [
        "amenity=place_of_worship"
      ],
      "wikipedia": "ca:Ermita de la Mare de Déu del Llosar",
      "wikidata": "Q8777262",
      "address": "Villafranca del Cid / Vilafranca",
      "religion": "christian",
      "osm_type": "node",
      "osm_id": 2862397802
    },
    {
      "name": "Far de l'Albir",
      "lat": 38.563342,
      "lon": -0.049699,
      "fame_score": 5,
      "name_es": "Faro de Albir",
      "name_ca": "Far de l'Albir",
      "categories": [
        "man_made=lighthouse"
      ],
      "wikipedia": "ca:Far de l'Albir",
      "wikidata": "Q29907024",
      "osm_type": "node",
      "osm_id": 2928416604
    },
    {
      "name": "Torre del Moro",
      "lat": 38.001035,
      "lon": -0.65117,
      "fame_score": 5,
      "name_ca": "Torre Cervera",
      "categories": [
        "tourism=viewpoint"
      ],
      "wikipedia": "es:Torre del Moro (Torrevieja)",
      "wikidata": "Q6150660",
      "osm_type": "node",
      "osm_id": 3260331508
    },
    {
      "name": "Font de la Nau de l'Aigua",
      "lat": 39.471167,
      "lon": -0.324169,
      "fame_score": 5,
      "name_es": "Fuente del Barco de Agua",
      "name_ca": "Font de la Nau de l'Aigua",
      "categories": [
        "amenity=fountain"
      ],
      "wikidata": "Q19251655",
      "osm_type": "node",
      "osm_id": 3349101555
    },
    {
      "name": "La Dama Ibèrica",
      "lat": 39.490265,
      "lon": -0.39932,
      "fame_score": 5,
      "name_es": "La Dama Ibérica",
      "name_ca": "La Dama Ibèrica",
      "categories": [
        "historic=monument"
      ],
      "wikipedia": "es:Dama Ibérica",
      "wikidata": "Q16745578",
      "osm_type": "node",
      "osm_id": 3540456749
    },
    {
      "name": "Sjømannskirken i Albir-Villajoyosa",
      "lat": 38.56933,
      "lon": -0.070256,
      "fame_score": 5,
      "name_es": "Sjømannskirken – Iglesia Noruega",
      "name_en": "Sjømannskirken – Norwegian Church Abroad",
      "categories": [
        "amenity=place_of_worship"
      ],
      "wikipedia": "no:Den norske sjømannskirken (Albir-Villajoyosa)",
      "wikidata": "Q64214375",
      "address": "Carrer Mart, 8, El Albir, Alfaz del Pi playa",
      "religion": "christian",
      "denomination": "Sjømannskirken_–_Norsk_kirke_i_utlandet",
      "osm_type": "node",
      "osm_id": 3763650266
    },
    {
      "name": "Museu Arqueològic de Llíria",
      "lat": 39.625855,
      "lon": -0.593723,
      "fame_score": 5,
      "name_es": "Museo Arqueológico de Liria",
      "name_ca": "Museu Arqueològic de Llíria",
      "categories": [
        "tourism=museum"
      ],
      "wikipedia": "es:Museo Arqueológico de Liria",
      "wikidata": "Q9046774",
      "osm_type": "node",
      "osm_id": 3802381022
    },
    {
      "name": "Faro",
      "lat": 38.995218,
      "lon": -0.144473,
      "fame_score": 5,
      "name_es": "Faro",
      "name_ca": "Faro",
      "name_en": "Lighthouse",
      "categories": [
        "tourism=attraction"
      ],
      "osm_type": "node",
      "osm_id": 4350782597
    },
    {
      "name": "Torre Racef",
      "lat": 39.29002,
      "lon": -0.413728,
      "fame_score": 5,
      "name_ca": "Torre de Rassef",
      "categories": [
        "man_made=tower"
      ],
      "wikipedia": "ca:Torre de Rassef",
      "wikidata": "Q810902",
      "osm_type": "node",
      "osm_id": 4773594840
    },
    {
      "name": "Casa de l'Ensenyança",
      "lat": 38.987395,
      "lon": -0.522455,
      "fame_score": 5,
      "name_es": "Casa de la Enseñanza",
      "name_ca": "Casa de l'Ensenyança",
      "categories": [
        "tourism=museum"
      ],
      "wikipedia": "ca:Casa de l'Ensenyança",
      "wikidata": "Q19816528",
      "osm_type": "node",
      "osm_id": 4825022624
    },
    {
      "name": "Museu de Prehistòria de València",
      "lat": 39.478316,
      "lon": -0.383058,
      "fame_score": 5,
      "name_es": "Museo de Prehistoria de Valencia",
      "name_ca": "Museu de Prehistòria de València",
      "categories": [
        "tourism=museum"
      ],
      "wikipedia": "ca:Museu de Prehistòria de València",
      "wikidata": "Q2701512",
      "address": "Carrer de la Corona, 36",
      "osm_type": "node",
      "osm_id": 4854372337
    },
    {
      "name": "L'ETNO - Museu Valencià d'Etnologia",
      "lat": 39.478353,
      "lon": -0.383332,
      "fame_score": 5,
      "name_es": "L'ETNO - Museo Valenciano de Etnología",
      "name_ca": "L'ETNO - Museu Valencià d'Etnologia",
      "categories": [
        "tourism=museum"
      ],
      "wikipedia": "ca:Museu Valencià d'Etnologia",
      "wikidata": "Q1577723",
      "address": "Carrer de la Corona, 36",
      "osm_type": "node",
      "osm_id": 4854372524
    },
    {
      "name": "lo Bufador",
      "lat": 40.356984,
      "lon": 0.407315,
      "fame_score": 5,
      "name_es": "Bufador",
      "name_ca": "lo Bufador",
      "name_en": "Bufador",
      "categories": [
        "tourism=attraction"
      ],
      "osm_type": "node",
      "osm_id": 5039444323
    },
    {
      "name": "Cova de la Petxina",
      "lat": 38.956782,
      "lon": -0.487497,
      "fame_score": 5,
      "name_ca": "Cova de la Petxina",
      "categories": [
        "historic=archaeological_site"
      ],
      "description": "Cova La Pexina",
      "wikidata": "Q56824953",
      "osm_type": "node",
      "osm_id": 5202958361
    },
    {
      "name": "Museu de la Mar / Museo del Mar",
      "lat": 38.192318,
      "lon": -0.554292,
      "fame_score": 5,
      "name_es": "Museo del Mar",
      "name_ca": "Museu de la Mar",
      "categories": [
        "tourism=museum"
      ],
      "wikipedia": "es:Museo del Mar (Santa Pola)",
      "wikidata": "Q6034457",
      "osm_type": "node",
      "osm_id": 6252663540
    },
    {
      "name": "Museo Arqueológico José María Soler",
      "lat": 38.631332,
      "lon": -0.863101,
      "fame_score": 5,
      "name_ca": "Museu Arqueològic José María Soler",
      "categories": [
        "tourism=museum"
      ],
      "wikipedia": "es:Museo Arqueológico Municipal de Villena",
      "wikidata": "Q11694497",
      "address": "Plaza de Santiago",
      "osm_type": "node",
      "osm_id": 6536569783
    },
    {
      "name": "Museo Escultor Navarro Santafé",
      "lat": 38.63424,
      "lon": -0.864106,
      "fame_score": 5,
      "name_ca": "Museu Escultor Navarro Santafé",
      "categories": [
        "tourism=museum"
      ],
      "wikipedia": "es:Museo Escultor Navarro Santafé",
      "wikidata": "Q6033319",
      "address": "Calle Escultor Antonio Navarro Santafe, 34",
      "osm_type": "node",
      "osm_id": 6536647445
    },
    {
      "name": "Museu de Cantereria",
      "lat": 38.441572,
      "lon": -0.640143,
      "fame_score": 5,
      "name_es": "Museo de Alfarería",
      "name_ca": "Museu de Cantereria",
      "categories": [
        "tourism=museum"
      ],
      "wikipedia": "es:Museo de Alfarería (Agost)",
      "wikidata": "Q9047036",
      "address": "carrer Teuleria, 11",
      "osm_type": "node",
      "osm_id": 6546991579
    },
    {
      "name": "Museo de la Lonja del Pescado",
      "lat": 38.339049,
      "lon": -0.48799,
      "fame_score": 5,
      "name_ca": "Museu de la Llotja del Peix",
      "categories": [
        "tourism=museum"
      ],
      "wikipedia": "es:Lonja del Pescado (Alicante)",
      "wikidata": "Q15977195",
      "osm_type": "node",
      "osm_id": 6547815398
    },
    {
      "name": "Jardí d'Astronomia",
      "lat": 39.454186,
      "lon": -0.351931,
      "fame_score": 5,
      "name_es": "Jardín de Astronomia",
      "name_ca": "Jardí d'Astronomia",
      "name_en": "Astronomy Garden",
      "categories": [
        "tourism=artwork"
      ],
      "osm_type": "node",
      "osm_id": 6561422474
    },
    {
      "name": "Santuari de la Mare de Déu de la Balma",
      "lat": 40.745542,
      "lon": -0.176085,
      "fame_score": 5,
      "name_es": "Santuario de la Virgen de la Balma",
      "name_ca": "Santuari de la Mare de Déu de la Balma",
      "categories": [
        "tourism=yes",
        "amenity=place_of_worship"
      ],
      "wikipedia": "ca:Santuari de la Mare de Déu de la Balma",
      "wikidata": "Q2918825",
      "religion": "christian",
      "osm_type": "node",
      "osm_id": 6886367745
    },
    {
      "name": "Museu del Tèxtil Valencià",
      "lat": 38.821004,
      "lon": -0.611186,
      "fame_score": 5,
      "name_es": "Museo del Textil Valenciano",
      "name_ca": "Museu del Tèxtil Valencià",
      "categories": [
        "tourism=museum"
      ],
      "wikipedia": "es:Museo Textil de la Comunidad Valenciana",
      "wikidata": "Q20021478",
      "address": "Plaça de Sant Roc, 2, Ontinyent",
      "osm_type": "node",
      "osm_id": 7629277746
    },
    {
      "name": "Museu arqueològic i etnològic Dámaso Navarro",
      "lat": 38.485169,
      "lon": -0.769734,
      "fame_score": 5,
      "name_es": "Museo arqueológico y etnológico Dámaso Navarro",
      "name_ca": "Museu arqueològic i etnològic Dámaso Navarro",
      "categories": [
        "tourism=museum"
      ],
      "wikipedia": "es:Museo Dámaso Navarro",
      "wikidata": "Q9046811",
      "address": "Carrer La Font, 1",
      "osm_type": "node",
      "osm_id": 8615649495
    },
    {
      "name": "Refugi Antiaeri de la Plaça Tetuan",
      "lat": 39.987513,
      "lon": -0.040523,
      "fame_score": 5,
      "name_es": "Entrada Refugio Antiaéreo",
      "name_ca": "Refugi Antiaeri de la Plaça Tetuan",
      "categories": [
        "tourism=attraction"
      ],
      "wikipedia": "ca:Refugi antiaeri de Castelló de la Plana",
      "wikidata": "Q116255768",
      "osm_type": "node",
      "osm_id": 8732059117
    },
    {
      "name": "Palau del Marqués de Villores",
      "lat": 40.464832,
      "lon": 0.179441,
      "fame_score": 5,
      "name_es": "Palacio del Marqués de Villores",
      "name_ca": "Palau del Marqués de Villores",
      "categories": [
        "tourism=attraction"
      ],
      "wikipedia": "ca:Palau del Marqués de Villores",
      "wikidata": "Q18005323",
      "year": "C16",
      "address": "Carrer de València, 17",
      "osm_type": "node",
      "osm_id": 8761596717
    },
    {
      "name": "Museu Municipal d´Alzira",
      "lat": 39.152249,
      "lon": -0.441911,
      "fame_score": 5,
      "name_es": "Museo Municipal de Alzira",
      "name_ca": "Museu Municipal d´Alzira",
      "categories": [
        "tourism=museum"
      ],
      "wikipedia": "es:Museo Municipal de Alcira",
      "wikidata": "Q11938057",
      "address": "Carrer de Sant Roc, 16, Alzira",
      "osm_type": "node",
      "osm_id": 9136014303
    },
    {
      "name": "El Carrer dels Bolets",
      "lat": 38.343719,
      "lon": -0.48641,
      "fame_score": 5,
      "name_es": "Calle de las Setas",
      "name_en": "Mushroom Street",
      "categories": [
        "tourism=attraction"
      ],
      "address": "Carrer de Sant Francesc, 67",
      "osm_type": "node",
      "osm_id": 9967423417
    },
    {
      "name": "Castell d'Orpesa",
      "lat": 40.092484,
      "lon": 0.133086,
      "fame_score": 5,
      "name_es": "Castillo de Oropesa",
      "name_ca": "Castell d'Orpesa",
      "categories": [
        "historic=castle"
      ],
      "wikipedia": "ca:Castell d'Orpesa",
      "wikidata": "Q26828101",
      "osm_type": "node",
      "osm_id": 11163691044
    },
    {
      "name": "Taula-te tombant",
      "lat": 39.475485,
      "lon": -0.396669,
      "fame_score": 5,
      "name_es": "Taula-te tombant",
      "name_en": "Taula-te tombant",
      "categories": [
        "tourism=artwork"
      ],
      "year": "1988",
      "osm_type": "node",
      "osm_id": 12417496077
    },
    {
      "name": "Necròpolis ibèrica del Corral de Saus",
      "lat": 38.857773,
      "lon": -0.846312,
      "fame_score": 5,
      "name_es": "Necrópolis ibérica del Corral de Saus",
      "name_ca": "Necròpolis ibèrica del Corral de Saus",
      "categories": [
        "historic=archaeological_site"
      ],
      "wikipedia": "ca:Necròpolis ibèrica del Corral de Saus",
      "wikidata": "Q11695235",
      "osm_type": "node",
      "osm_id": 12454161357
    },
    {
      "name": "Yacimiento arqueológico de Cabezo Lucero",
      "lat": 38.08983,
      "lon": -0.688471,
      "fame_score": 5,
      "name_es": "Yacimiento arqueológico de Cabezo Lucero",
      "name_ca": "Jaciment arqueològic de Cabezo Lucero",
      "categories": [
        "historic=archaeological_site"
      ],
      "wikipedia": "es:Yacimiento arqueológico de Cabezo Lucero",
      "wikidata": "Q6169521",
      "osm_type": "node",
      "osm_id": 12467332460
    },
    {
      "name": "Museu de la Ciutat de València",
      "lat": 39.476043,
      "lon": -0.373738,
      "fame_score": 5,
      "name_es": "Museo de la Ciudad de Valencia",
      "name_ca": "Museu de la Ciutat de València",
      "categories": [
        "tourism=museum"
      ],
      "wikipedia": "ca:Museu de la Ciutat de València",
      "wikidata": "Q18005084",
      "address": "Plaça de l'Arquebisbe, 3, València",
      "osm_type": "node",
      "osm_id": 13012356018
    },
    {
      "name": "Parc de la Cultura",
      "lat": 39.470079,
      "lon": -0.381454,
      "fame_score": 5,
      "name_es": "Parque de la Cultura",
      "name_ca": "Parc de la Cultura",
      "categories": [
        "leisure=park"
      ],
      "wikipedia": "ca:Parc de l'Hospital",
      "wikidata": "Q11940172",
      "osm_type": "way",
      "osm_id": 4790961
    },
    {
      "name": "Jardí de Monforte",
      "lat": 39.477499,
      "lon": -0.364958,
      "fame_score": 5,
      "name_es": "Jardines de Monforte",
      "name_ca": "Jardí de Monforte",
      "categories": [
        "tourism=attraction",
        "leisure=park"
      ],
      "wikipedia": "ca:Jardí de Monforte",
      "wikidata": "Q2743957",
      "osm_type": "way",
      "osm_id": 8082828
    },
    {
      "name": "Jardins del Real",
      "lat": 39.479923,
      "lon": -0.367946,
      "fame_score": 5,
      "name_es": "Jardines del Real",
      "name_ca": "Jardins del Real",
      "categories": [
        "leisure=park"
      ],
      "wikipedia": "es:Jardines del Real",
      "wikidata": "Q5926337",
      "address": "Carrer de Sant Pius V, València",
      "osm_type": "way",
      "osm_id": 9289283
    },
    {
      "name": "Torres de Quart",
      "lat": 39.475786,
      "lon": -0.383955,
      "fame_score": 5,
      "name_es": "Porta de Quart",
      "name_ca": "Torres de Quart",
      "categories": [
        "historic=city_gate",
        "building=tower"
      ],
      "wikipedia": "ca:Porta de Quart",
      "wikidata": "Q2343754",
      "osm_type": "way",
      "osm_id": 13073736
    },
    {
      "name": "Palau Municipal de Castelló de la Plana",
      "lat": 39.986115,
      "lon": -0.038112,
      "fame_score": 5,
      "name_es": "Palacio de Castelló de la Plana",
      "name_ca": "Palau Municipal de Castelló de la Plana",
      "categories": [
        "historic=building",
        "building=public"
      ],
      "wikipedia": "ca:Palau Municipal de Castelló de la Plana",
      "wikidata": "Q9054374",
      "year": "1716",
      "osm_type": "way",
      "osm_id": 21616792
    },
    {
      "name": "Basílica de Santa María",
      "lat": 38.346223,
      "lon": -0.479211,
      "fame_score": 5,
      "name_ca": "Basílica de Santa Maria",
      "categories": [
        "amenity=place_of_worship",
        "building=yes"
      ],
      "wikipedia": "es:Basílica de Santa María (Alicante)",
      "wikidata": "Q3395771",
      "religion": "christian",
      "denomination": "catholic",
      "osm_type": "way",
      "osm_id": 22560738
    },
    {
      "name": "Plaça de Gabriel Miró",
      "lat": 38.343411,
      "lon": -0.484992,
      "fame_score": 5,
      "name_es": "Plaza de Gabriel Miró",
      "name_ca": "Plaça de Gabriel Miró",
      "categories": [
        "leisure=park"
      ],
      "wikipedia": "es:Plaza de Gabriel Miró (Alicante)",
      "wikidata": "Q11105032",
      "osm_type": "way",
      "osm_id": 22563906
    },
    {
      "name": "MACA - Museo de Arte Contemporáneo de Alicante",
      "lat": 38.346392,
      "lon": -0.479623,
      "fame_score": 5,
      "name_ca": "Museu d'Art Contemporani d'Alacant",
      "categories": [
        "tourism=museum",
        "building=yes"
      ],
      "wikipedia": "ca:Museu d'Art Contemporani d'Alacant",
      "wikidata": "Q4725678",
      "osm_type": "way",
      "osm_id": 22588102
    },
    {
      "name": "MARQ - Museo Arqueológico de Alicante",
      "lat": 38.353908,
      "lon": -0.476229,
      "fame_score": 5,
      "name_ca": "MARQ - Museu Arqueològic d'Alacant",
      "categories": [
        "tourism=museum"
      ],
      "wikipedia": "ca:Museu Arqueològic Provincial d'Alacant",
      "wikidata": "Q636891",
      "osm_type": "way",
      "osm_id": 22749868
    },
    {
      "name": "Terra Mítica",
      "lat": 38.560662,
      "lon": -0.160055,
      "fame_score": 5,
      "name_ca": "Terra Mítica",
      "categories": [
        "tourism=theme_park"
      ],
      "wikipedia": "ca:Terra Mítica",
      "wikidata": "Q735257",
      "osm_type": "way",
      "osm_id": 23351663
    },
    {
      "name": "Teatre Principal de València",
      "lat": 39.470674,
      "lon": -0.374475,
      "fame_score": 5,
      "name_es": "Teatro Principal de Valencia",
      "name_ca": "Teatre Principal de València",
      "categories": [
        "amenity=theatre",
        "building=yes"
      ],
      "wikipedia": "ca:Teatre Principal (València)",
      "wikidata": "Q3329707",
      "address": "Carrer de les Barques, 15",
      "osm_type": "way",
      "osm_id": 23377878
    },
    {
      "name": "Jardins d'Aiora",
      "lat": 39.467665,
      "lon": -0.344071,
      "fame_score": 5,
      "name_es": "Jardín de Ayora",
      "name_ca": "Jardins d'Aiora",
      "categories": [
        "leisure=park"
      ],
      "wikipedia": "es:Palacete de Ayora",
      "wikidata": "Q9054302",
      "address": "Carrer dels Sants Just i Pastor, 98, València",
      "osm_type": "way",
      "osm_id": 23413023
    },
    {
      "name": "L'Hemisfèric",
      "lat": 39.456671,
      "lon": -0.353875,
      "fame_score": 5,
      "name_es": "El Hemisférico",
      "name_ca": "L'Hemisfèric",
      "categories": [
        "amenity=cinema",
        "building=yes"
      ],
      "wikipedia": "ca:L'Hemisfèric",
      "wikidata": "Q2712673",
      "osm_type": "way",
      "osm_id": 23433774
    },
    {
      "name": "Delfinari",
      "lat": 39.452673,
      "lon": -0.345483,
      "fame_score": 5,
      "name_es": "Delfinario",
      "name_ca": "Delfinari",
      "name_en": "Dolphinarium",
      "categories": [
        "tourism=attraction"
      ],
      "osm_type": "way",
      "osm_id": 23433783
    },
    {
      "name": "Parc d'Orriols",
      "lat": 39.493323,
      "lon": -0.365664,
      "fame_score": 5,
      "name_es": "Parque de Orriols",
      "name_ca": "Parc d'Orriols",
      "categories": [
        "leisure=park"
      ],
      "wikipedia": "ca:Parc Municipal d'Orriols",
      "wikidata": "Q11940154",
      "osm_type": "way",
      "osm_id": 23793811
    },
    {
      "name": "Parc Gulliver",
      "lat": 39.462558,
      "lon": -0.359414,
      "fame_score": 5,
      "name_es": "Parque Gulliver",
      "name_ca": "Parc Gulliver",
      "categories": [
        "leisure=park"
      ],
      "wikipedia": "es:Parque Gulliver",
      "wikidata": "Q2345508",
      "osm_type": "way",
      "osm_id": 36962389
    },
    {
      "name": "Castell d'Alaquàs",
      "lat": 39.457787,
      "lon": -0.456878,
      "fame_score": 5,
      "name_ca": "Castell d'Alaquàs",
      "categories": [
        "historic=castle",
        "building=yes"
      ],
      "wikipedia": "ca:Palau-Castell d'Alaquàs",
      "wikidata": "Q55684",
      "osm_type": "way",
      "osm_id": 36985283
    },
    {
      "name": "Estadio José Rico Pérez",
      "lat": 38.357426,
      "lon": -0.492594,
      "fame_score": 5,
      "name_es": "Estadio José Rico Pérez",
      "name_ca": "Estadi José Rico Pérez",
      "categories": [
        "leisure=stadium"
      ],
      "wikipedia": "es:Estadio José Rico Pérez",
      "wikidata": "Q945070",
      "year": "1974",
      "osm_type": "way",
      "osm_id": 43292292
    },
    {
      "name": "Torre del Xiprer",
      "lat": 38.377173,
      "lon": -0.43075,
      "fame_score": 5,
      "name_es": "Torre El Ciprés",
      "name_ca": "Torre del Xiprer",
      "categories": [
        "historic=monument",
        "building=yes"
      ],
      "wikipedia": "ca:Torre del Ciprer",
      "wikidata": "Q12221024",
      "osm_type": "way",
      "osm_id": 43373262
    },
    {
      "name": "Torre de la Santa Faç",
      "lat": 38.38927,
      "lon": -0.442709,
      "fame_score": 5,
      "name_es": "Torre de Santa Faz",
      "name_ca": "Torre de la Santa Faç",
      "categories": [
        "historic=monument",
        "building=yes"
      ],
      "wikipedia": "ca:Torre de Santa Faç",
      "wikidata": "Q12221028",
      "osm_type": "way",
      "osm_id": 43375192
    },
    {
      "name": "Hotel Alicante Gran Sol",
      "lat": 38.343888,
      "lon": -0.483218,
      "fame_score": 5,
      "name_ca": "Edifici Gran Sol",
      "categories": [
        "tourism=hotel",
        "building=yes"
      ],
      "wikipedia": "es:Gran Sol (edificio)",
      "wikidata": "Q5594068",
      "osm_type": "way",
      "osm_id": 53271502
    },
    {
      "name": "Museo de Arte Contemporáneo de Elche",
      "lat": 38.260831,
      "lon": -0.698832,
      "fame_score": 5,
      "name_ca": "Museu d'Art Contemporani d'Elx",
      "categories": [
        "tourism=museum",
        "building=yes"
      ],
      "wikipedia": "ca:Museu d'Art Contemporani d'Elx",
      "wikidata": "Q16609889",
      "osm_type": "way",
      "osm_id": 61390313
    },
    {
      "name": "Santuario de la Magdalena",
      "lat": 38.408184,
      "lon": -0.792181,
      "fame_score": 5,
      "name_ca": "Santuari de Santa Maria Magdalena",
      "categories": [
        "tourism=attraction",
        "amenity=place_of_worship",
        "building=church"
      ],
      "wikipedia": "ca:Santuari de Santa Maria Magdalena",
      "wikidata": "Q3949600",
      "religion": "christian",
      "denomination": "catholic",
      "osm_type": "way",
      "osm_id": 67563821
    },
    {
      "name": "Museu del Palmerar",
      "lat": 38.264107,
      "lon": -0.693155,
      "fame_score": 5,
      "name_ca": "Museu del Palmerar",
      "categories": [
        "tourism=museum",
        "building=yes"
      ],
      "wikipedia": "ca:Museu del Palmerar",
      "wikidata": "Q6034477",
      "osm_type": "way",
      "osm_id": 75377753
    },
    {
      "name": "Ajuntament d'Elx",
      "lat": 38.265496,
      "lon": -0.699025,
      "fame_score": 5,
      "name_es": "Ayuntamiento de Elche",
      "name_ca": "Ajuntament d'Elx",
      "categories": [
        "amenity=townhall",
        "building=yes"
      ],
      "wikipedia": "ca:Ajuntament d'Elx",
      "wikidata": "Q17586734",
      "osm_type": "way",
      "osm_id": 75381311
    },
    {
      "name": "Estació Elx-Parc",
      "lat": 38.271834,
      "lon": -0.695143,
      "fame_score": 5,
      "name_es": "Estación Elche-Parque",
      "name_ca": "Estació Elx-Parc",
      "categories": [
        "building=train_station"
      ],
      "wikipedia": "ca:Estació d'Elx-Parc",
      "wikidata": "Q3325458",
      "osm_type": "way",
      "osm_id": 79816692
    },
    {
      "name": "Estadi Manuel Martínez Valero",
      "lat": 38.267043,
      "lon": -0.663295,
      "fame_score": 5,
      "name_es": "Estadio Manuel Martínez Valero",
      "name_ca": "Estadi Manuel Martínez Valero",
      "categories": [
        "leisure=stadium"
      ],
      "wikipedia": "es:Estadio Martínez Valero",
      "wikidata": "Q953600",
      "year": "1976",
      "osm_type": "way",
      "osm_id": 79833556
    },
    {
      "name": "Termas Públicas Imperiales de Allón",
      "lat": 38.506767,
      "lon": -0.233289,
      "fame_score": 5,
      "name_ca": "Termes Públiques Imperials d'Allon",
      "categories": [
        "historic=archaeological_site",
        "tourism=attraction"
      ],
      "wikipedia": "ca:Termes públiques d'Al·ló",
      "wikidata": "Q20021633",
      "osm_type": "way",
      "osm_id": 86877189
    },
    {
      "name": "Castell d'Ares del Maestrat",
      "lat": 40.455462,
      "lon": -0.131208,
      "fame_score": 5,
      "name_es": "Castillo de Ares del Maestre",
      "name_ca": "Castell d'Ares del Maestrat",
      "categories": [
        "historic=castle"
      ],
      "wikipedia": "ca:Castell d'Ares",
      "osm_type": "way",
      "osm_id": 132799900
    },
    {
      "name": "Palau de l'Exposició",
      "lat": 39.473433,
      "lon": -0.362417,
      "fame_score": 5,
      "name_es": "Palacio de la Exposición",
      "name_ca": "Palau de l'Exposició",
      "categories": [
        "tourism=attraction",
        "building=palace"
      ],
      "wikipedia": "ca:Palau de l'Exposició",
      "wikidata": "Q48975834",
      "address": "Calle Galicia, 1",
      "osm_type": "way",
      "osm_id": 150277194
    },
    {
      "name": "Castell de Petrer",
      "lat": 38.4842,
      "lon": -0.767714,
      "fame_score": 5,
      "name_es": "Castillo de Petrer",
      "name_ca": "Castell de Petrer",
      "categories": [
        "historic=castle",
        "building=yes"
      ],
      "wikipedia": "ca:Castell de Petrer",
      "wikidata": "Q6746716",
      "osm_type": "way",
      "osm_id": 165602689
    },
    {
      "name": "Balneari d'Aigües",
      "lat": 38.506386,
      "lon": -0.369756,
      "fame_score": 5,
      "name_es": "Preventorio de Aguas de Busot",
      "name_ca": "Balneari d'Aigües",
      "categories": [
        "building=hospital"
      ],
      "wikipedia": "ca:Preventori d'Aigües",
      "wikidata": "Q1473703",
      "osm_type": "way",
      "osm_id": 167145088
    },
    {
      "name": "Ajuntament de Castalla",
      "lat": 38.595188,
      "lon": -0.672265,
      "fame_score": 5,
      "name_es": "Ayuntamiento de Castalla",
      "name_ca": "Ajuntament de Castalla",
      "categories": [
        "amenity=townhall",
        "building=yes"
      ],
      "wikipedia": "es:Casa consistorial de Castalla",
      "wikidata": "Q5754612",
      "osm_type": "way",
      "osm_id": 168427412
    },
    {
      "name": "Santuari de la Mare de Déu d'Agres",
      "lat": 38.775907,
      "lon": -0.515118,
      "fame_score": 5,
      "name_es": "Santuario de Nuestra Señora de Agres",
      "name_ca": "Santuari de la Mare de Déu d'Agres",
      "categories": [
        "tourism=attraction",
        "amenity=place_of_worship",
        "building=yes"
      ],
      "wikipedia": "es:Santuario de Nuestra Señora (Agres)",
      "wikidata": "Q11703598",
      "religion": "christian",
      "osm_type": "way",
      "osm_id": 171041204
    },
    {
      "name": "Castell dels Alcalans",
      "lat": 39.328926,
      "lon": -0.585468,
      "fame_score": 5,
      "name_ca": "Castell dels Alcalans",
      "categories": [
        "historic=castle"
      ],
      "wikipedia": "ca:Castell dels Alcalans",
      "wikidata": "Q5757793",
      "osm_type": "way",
      "osm_id": 182058068
    },
    {
      "name": "Església Vella de Xert",
      "lat": 40.521266,
      "lon": 0.156095,
      "fame_score": 5,
      "name_ca": "Església Vella de Xert",
      "categories": [
        "historic=church",
        "tourism=attraction",
        "amenity=place_of_worship",
        "building=yes"
      ],
      "description": "Iglesia católica situada en el casco antiguo de Xert. De estilo renacentista con vestigios góticos, existen registros de su construcción durante el siglo XIII. Desde 1963, su uso se ha reducido en favor de la Església Nova.",
      "wikipedia": "ca:Església vella de Xert",
      "wikidata": "Q16976622",
      "religion": "christian",
      "denomination": "roman_catholic",
      "osm_type": "way",
      "osm_id": 201333951
    },
    {
      "name": "Museu Arqueològic de Sagunt",
      "lat": 39.678484,
      "lon": -0.277906,
      "fame_score": 5,
      "name_es": "Museo Arqueológico de Sagunto",
      "name_ca": "Museu Arqueològic de Sagunt",
      "categories": [
        "tourism=museum",
        "building=yes"
      ],
      "wikipedia": "ca:Museu Arqueològic del Teatre Romà",
      "wikidata": "Q6033143",
      "osm_type": "way",
      "osm_id": 203064640
    },
    {
      "name": "Castillo de Biar",
      "lat": 38.631252,
      "lon": -0.764815,
      "fame_score": 5,
      "name_ca": "Castell de Biar",
      "categories": [
        "historic=castle",
        "building=yes"
      ],
      "wikipedia": "ca:Castell de Biar",
      "wikidata": "Q269470",
      "osm_type": "way",
      "osm_id": 209087173
    },
    {
      "name": "Castillo de Chirel",
      "lat": 39.239868,
      "lon": -0.985571,
      "fame_score": 5,
      "categories": [
        "historic=castle",
        "tourism=attraction",
        "building=yes"
      ],
      "wikidata": "Q3737669",
      "osm_type": "way",
      "osm_id": 224312444
    },
    {
      "name": "Almodí",
      "lat": 39.476597,
      "lon": -0.373905,
      "fame_score": 5,
      "name_es": "Almudín",
      "name_ca": "Almodí",
      "categories": [
        "historic=building",
        "amenity=arts_centre",
        "building=public"
      ],
      "wikipedia": "es:Almudín de Valencia",
      "wikidata": "Q8196158",
      "address": "Carrer de l'Almodí",
      "osm_type": "way",
      "osm_id": 227916537
    },
    {
      "name": "Ermita de Sant Josep",
      "lat": 38.985844,
      "lon": -0.517651,
      "fame_score": 5,
      "name_es": "Ermita de San José",
      "name_ca": "Ermita de Sant Josep",
      "categories": [
        "amenity=place_of_worship",
        "building=yes"
      ],
      "religion": "christian",
      "osm_type": "way",
      "osm_id": 233413219
    },
    {
      "name": "Ruinas del Portus Illicitanus",
      "lat": 38.195147,
      "lon": -0.561067,
      "fame_score": 5,
      "name_ca": "Portus Ilicitanus",
      "categories": [
        "historic=archaeological_site",
        "tourism=attraction"
      ],
      "wikipedia": "es:Portus Ilicitanus",
      "wikidata": "Q6083282",
      "osm_type": "way",
      "osm_id": 263985883
    },
    {
      "name": "Jaciment arqueològic del Palmerar",
      "lat": 38.194996,
      "lon": -0.559001,
      "fame_score": 5,
      "name_ca": "Jaciment arqueològic del Palmerar",
      "categories": [
        "historic=archaeological_site",
        "tourism=attraction"
      ],
      "wikipedia": "es:Villa romana del Palmeral",
      "wikidata": "Q9093967",
      "osm_type": "way",
      "osm_id": 299278687
    },
    {
      "name": "Castell de Bairén",
      "lat": 38.995379,
      "lon": -0.186073,
      "fame_score": 5,
      "name_es": "Castillo de Bairén",
      "name_ca": "Castell de Bairén",
      "categories": [
        "historic=castle"
      ],
      "wikipedia": "es:Castillo de Bairén",
      "wikidata": "Q4889360",
      "osm_type": "way",
      "osm_id": 299284922
    },
    {
      "name": "Antic Parc de Bombers",
      "lat": 38.69763,
      "lon": -0.471997,
      "fame_score": 5,
      "name_es": "Antiguo Parque de Bomberos",
      "name_ca": "Antic Parc de Bombers",
      "categories": [
        "historic=building",
        "building=fire_station"
      ],
      "wikipedia": "es:Edificio del Parque de Bomberos (Alcoy)",
      "wikidata": "Q43097596",
      "architect": "Vicent Pascual Pastor",
      "year": "1915",
      "osm_type": "way",
      "osm_id": 301396640
    },
    {
      "name": "Pintures ruprestres de la Sarga",
      "lat": 38.642875,
      "lon": -0.457577,
      "fame_score": 5,
      "name_es": "Pinturas ruprestres de la Sarga",
      "name_ca": "Pintures ruprestres de la Sarga",
      "categories": [
        "historic=archaeological_site"
      ],
      "wikipedia": "ca:La Sarga",
      "wikidata": "Q9018938",
      "osm_type": "way",
      "osm_id": 301931078
    },
    {
      "name": "Cocatedral de Santa Maria",
      "lat": 39.986006,
      "lon": -0.036992,
      "fame_score": 5,
      "name_es": "Concatedral de Santa María",
      "name_ca": "Cocatedral de Santa Maria",
      "categories": [
        "historic=church",
        "amenity=place_of_worship",
        "building=cathedral"
      ],
      "wikipedia": "ca:Cocatedral de Santa Maria",
      "wikidata": "Q2942630",
      "religion": "christian",
      "denomination": "roman_catholic",
      "osm_type": "way",
      "osm_id": 331560010
    },
    {
      "name": "Castell de Benifallim",
      "lat": 38.661911,
      "lon": -0.395091,
      "fame_score": 5,
      "name_es": "Castillo de Benifallim",
      "name_ca": "Castell de Benifallim",
      "categories": [
        "historic=castle",
        "tourism=attraction"
      ],
      "wikipedia": "es:Castillo de Benifallim",
      "wikidata": "Q17588082",
      "osm_type": "way",
      "osm_id": 335396141
    },
    {
      "name": "Museo del Calzado",
      "lat": 38.47376,
      "lon": -0.795387,
      "fame_score": 5,
      "name_ca": "Museu del Calçat",
      "categories": [
        "tourism=museum",
        "building=yes"
      ],
      "wikipedia": "ca:Museu del Calçat d'Elda",
      "wikidata": "Q5406194",
      "osm_type": "way",
      "osm_id": 356545301
    },
    {
      "name": "Mundomar",
      "lat": 38.54271,
      "lon": -0.093095,
      "fame_score": 5,
      "name_ca": "Mundomar",
      "categories": [
        "tourism=zoo"
      ],
      "wikipedia": "es:Mundomar",
      "wikidata": "Q5408775",
      "osm_type": "way",
      "osm_id": 368717436
    },
    {
      "name": "Castell de Marinyén",
      "lat": 39.048319,
      "lon": -0.275957,
      "fame_score": 5,
      "name_ca": "Castell de Marinyén",
      "categories": [
        "historic=castle",
        "tourism=yes"
      ],
      "wikipedia": "ca:Castell d'Alfàndec",
      "wikidata": "Q8342405",
      "osm_type": "way",
      "osm_id": 384314951
    },
    {
      "name": "Castell de Moraira",
      "lat": 38.68671,
      "lon": 0.132607,
      "fame_score": 5,
      "name_ca": "Castell de Moraira",
      "categories": [
        "historic=castle",
        "tourism=attraction",
        "building=castle"
      ],
      "wikipedia": "es:Castillo de Moraira",
      "wikidata": "Q6745387",
      "osm_type": "way",
      "osm_id": 393184944
    },
    {
      "name": "Museu Alcoià de la Festa",
      "lat": 38.700425,
      "lon": -0.473142,
      "fame_score": 5,
      "name_es": "Museo Alcoyano de la Fiesta",
      "name_ca": "Museu Alcoià de la Festa",
      "categories": [
        "tourism=museum",
        "building=yes"
      ],
      "wikipedia": "ca:Museu Alcoià de la Festa",
      "wikidata": "Q41097834",
      "address": "Carrer Sant Miquel, 60, Alcoi / Alcoy",
      "osm_type": "way",
      "osm_id": 401487143
    },
    {
      "name": "Ateneo Mercantil de Valencia",
      "lat": 39.470893,
      "lon": -0.376041,
      "fame_score": 5,
      "name_es": "Ateneo Mercantil de Valencia",
      "name_ca": "Ateneu Mercantil de València",
      "categories": [
        "amenity=community_centre",
        "building=civic"
      ],
      "wikipedia": "es:Ateneo Mercantil de Valencia",
      "wikidata": "Q8207995",
      "architect": "Juan de Zavala y Lafora;José María Rivas Eulate;Fernando Arzadún Ibarrarán",
      "year": "1941",
      "osm_type": "way",
      "osm_id": 416210407
    },
    {
      "name": "Torre de Silla",
      "lat": 39.362443,
      "lon": -0.412221,
      "fame_score": 5,
      "name_ca": "Torre de Silla",
      "categories": [
        "historic=castle",
        "tourism=attraction",
        "building=yes",
        "man_made=tower"
      ],
      "wikipedia": "es:Torre musulmana de Silla",
      "wikidata": "Q10836",
      "year": "C12",
      "address": "Carrer Castell, Silla",
      "osm_type": "way",
      "osm_id": 423657722
    },
    {
      "name": "Lleons Marins",
      "lat": 39.452514,
      "lon": -0.346942,
      "fame_score": 5,
      "name_es": "Leones Marinos",
      "name_ca": "Lleons Marins",
      "name_en": "Pinniped pool",
      "categories": [
        "tourism=attraction"
      ],
      "osm_type": "way",
      "osm_id": 437061659
    },
    {
      "name": "Poblat ibèric emmurallat del Tos Pelat",
      "lat": 39.559924,
      "lon": -0.421,
      "fame_score": 5,
      "name_es": "Poblado ibérico amurallado del Tos Pelat",
      "name_ca": "Poblat ibèric emmurallat del Tos Pelat",
      "categories": [
        "historic=archaeological_site"
      ],
      "wikipedia": "ca:Poblat ibèric emmurallat del Tos Pelat",
      "wikidata": "Q6081057",
      "osm_type": "way",
      "osm_id": 476161792
    },
    {
      "name": "La Casa Judía",
      "lat": 39.464754,
      "lon": -0.375882,
      "fame_score": 5,
      "name_es": "La Casa Judía",
      "name_ca": "La Casa Jueva",
      "categories": [
        "historic=building",
        "building=apartments"
      ],
      "wikipedia": "es:Casa Judía",
      "wikidata": "Q50419723",
      "architect": "Juan Guardiola",
      "year": "1930",
      "style": "art_deco",
      "address": "Carrer de Castelló, 20, València",
      "osm_type": "way",
      "osm_id": 478348143
    },
    {
      "name": "Castell de Banyeres",
      "lat": 38.715462,
      "lon": -0.657813,
      "fame_score": 5,
      "name_es": "Castillo de Bañeres",
      "name_ca": "Castell de Banyeres",
      "categories": [
        "historic=castle",
        "tourism=attraction"
      ],
      "wikipedia": "es:Castillo de Bañeres",
      "wikidata": "Q3823727",
      "osm_type": "way",
      "osm_id": 482332235
    },
    {
      "name": "Torre Espioca",
      "lat": 39.315134,
      "lon": -0.440753,
      "fame_score": 5,
      "name_ca": "Torre Espioca",
      "categories": [
        "historic=castle",
        "building=yes",
        "man_made=tower"
      ],
      "wikipedia": "ca:Torre Espioca",
      "wikidata": "Q6150133",
      "osm_type": "way",
      "osm_id": 484616561
    },
    {
      "name": "Ajuntament de Guardamar del Segura",
      "lat": 38.090169,
      "lon": -0.653904,
      "fame_score": 5,
      "name_es": "Ayuntamiento de Guardamar",
      "name_ca": "Ajuntament de Guardamar del Segura",
      "name_en": "Guardamar Town Hall",
      "categories": [
        "amenity=townhall",
        "building=government"
      ],
      "address": "Plaça de la Constitució, 5, Guardamar del Segura",
      "osm_type": "way",
      "osm_id": 498368499
    },
    {
      "name": "Bioparc València",
      "lat": 39.477971,
      "lon": -0.409324,
      "fame_score": 5,
      "name_es": "Bioparc Valencia",
      "name_ca": "Bioparc València",
      "categories": [
        "tourism=zoo"
      ],
      "description": "És un zoo privat, per tal d'accedir-hi has d'efectuar un pagament d'uns trenta euros.",
      "wikipedia": "es:Bioparc Valencia",
      "wikidata": "Q1954263",
      "address": "Avenida de Pío Baroja, València",
      "osm_type": "way",
      "osm_id": 512393709
    },
    {
      "name": "Casa-Museo Blasco Ibañez",
      "lat": 39.482668,
      "lon": -0.325984,
      "fame_score": 5,
      "name_es": "Casa-Museo de Blasco Ibáñez",
      "name_ca": "Casa-Museu de Blasco Ibáñez",
      "categories": [
        "tourism=museum",
        "building=public"
      ],
      "wikipedia": "ca:Casa-Museu de Blasco Ibáñez",
      "wikidata": "Q13548107",
      "address": "Carrer d'Isabel de Villena, 159, València",
      "osm_type": "way",
      "osm_id": 512676794
    },
    {
      "name": "Ciutat de les Arts i les Ciències",
      "lat": 39.45584,
      "lon": -0.351765,
      "fame_score": 5,
      "name_es": "Ciudad de las Artes y las Ciencias",
      "name_ca": "Ciutat de les Arts i les Ciències",
      "categories": [
        "tourism=attraction"
      ],
      "wikipedia": "ca:Ciutat de les Arts i les Ciències",
      "wikidata": "Q239935",
      "address": "Avinguda del Professor López Piñero (Historiador de la Medicina), 7, València",
      "osm_type": "way",
      "osm_id": 513681817
    },
    {
      "name": "Castell de Riba-roja de Túria",
      "lat": 39.547972,
      "lon": -0.565165,
      "fame_score": 5,
      "name_es": "Castillo de Ribarroja de Turia",
      "name_ca": "Castell de Riba-roja de Túria",
      "categories": [
        "historic=castle",
        "tourism=attraction"
      ],
      "wikipedia": "es:Castillo y murallas de Ribarroja del Turia",
      "wikidata": "Q1743510",
      "address": "Carrer de la Cisterna, 28",
      "osm_type": "way",
      "osm_id": 542763134
    },
    {
      "name": "Estadi Ciutat de València",
      "lat": 39.494719,
      "lon": -0.363897,
      "fame_score": 5,
      "name_es": "Estadio Ciudad de Valencia",
      "name_ca": "Estadi Ciutat de València",
      "categories": [
        "leisure=stadium"
      ],
      "wikipedia": "es:Estadio Ciudad de Valencia",
      "wikidata": "Q1122715",
      "osm_type": "way",
      "osm_id": 549557293
    },
    {
      "name": "Museu Valencià del Paper",
      "lat": 38.722269,
      "lon": -0.655615,
      "fame_score": 5,
      "name_es": "Museo Valenciano del Papel",
      "name_ca": "Museu Valencià del Paper",
      "categories": [
        "tourism=museum",
        "building=yes"
      ],
      "wikipedia": "es:Museo Valenciano del Papel",
      "wikidata": "Q6033789",
      "osm_type": "way",
      "osm_id": 566667918
    },
    {
      "name": "Lucentum",
      "lat": 38.365417,
      "lon": -0.437969,
      "fame_score": 5,
      "name_ca": "Lucentum",
      "categories": [
        "tourism=museum",
        "building=yes"
      ],
      "wikipedia": "ca:Termes romanes de Lucentum",
      "wikidata": "Q42669853",
      "osm_type": "way",
      "osm_id": 592852040
    },
    {
      "name": "Torre de Mussa",
      "lat": 39.289395,
      "lon": -0.431866,
      "fame_score": 5,
      "name_ca": "Torre de Mussa",
      "categories": [
        "historic=castle",
        "building=yes",
        "man_made=tower"
      ],
      "wikipedia": "ca:Torre Mussa",
      "wikidata": "Q6150213",
      "osm_type": "way",
      "osm_id": 611884335
    },
    {
      "name": "Torre vigía de la Horadada",
      "lat": 37.867817,
      "lon": -0.756481,
      "fame_score": 5,
      "name_ca": "Torre de la Foradada",
      "categories": [
        "historic=tower",
        "building=yes",
        "man_made=tower"
      ],
      "wikipedia": "es:Torre de la Horadada",
      "wikidata": "Q4894850",
      "osm_type": "way",
      "osm_id": 620659295
    },