{
  "metadata": {
    "source": "pais-vasco-260407.osm.pbf",
    "total_landmarks": 4933,
    "region": "País Vasco"
  },
  "landmarks": [
    {
      "name": "Parador De Turismo El Emperador",
      "osm_type": "relation",
      "osm_id": 3323973,
      "categories": [
        "historic=castle",
        "tourism=hotel",
        "building=yes"
      ],
      "fame_score": 12,
      "wikipedia": "eu:Hondarribiko gaztelua",
      "wikidata": "Q1049154",
      "needs_geocoding": true
    },
    {
      "name": "Bilboko Guggenheim museoa",
      "lat": 43.268557,
      "lon": -2.933825,
      "fame_score": 10,
      "name_es": "Museo Guggenheim Bilbao",
      "name_en": "Guggenheim Museum Bilbao",
      "categories": [
        "tourism=museum",
        "building=museum"
      ],
      "description": "in July and August open on mondays",
      "wikipedia": "es:Museo Guggenheim Bilbao",
      "wikidata": "Q179199",
      "architect": "Frank Gehry",
      "address": "Lehendakari Leizaola kalea, 2, Bilbao",
      "osm_type": "way",
      "osm_id": 118499485
    },
    {
      "name": "Mantibleko erromatar zubia",
      "osm_type": "relation",
      "osm_id": 15898624,
      "categories": [
        "historic=ruins",
        "tourism=attraction",
        "building=ruins"
      ],
      "fame_score": 10,
      "wikipedia": "it:Ponte romano di Mantible",
      "wikidata": "Q3754535",
      "needs_geocoding": true
    },
    {
      "name": "Haizearen orrazia",
      "lat": 43.321694,
      "lon": -2.005554,
      "fame_score": 9,
      "name_es": "Peine del Viento",
      "name_en": "The Comb of the Wind",
      "categories": [
        "tourism=artwork"
      ],
      "wikipedia": "es:Peine del Viento",
      "wikidata": "Q1187408",
      "osm_type": "node",
      "osm_id": 361066700
    },
    {
      "name": "Bizkaia zubia",
      "lat": 43.323197,
      "lon": -3.017181,
      "fame_score": 9,
      "name_es": "Puente Colgante de Bizkaia",
      "categories": [
        "tourism=attraction",
        "man_made=bridge"
      ],
      "wikipedia": "es:Puente de Vizcaya",
      "wikidata": "Q331996",
      "architect": "Alberto Palacios",
      "year": "1890",
      "osm_type": "way",
      "osm_id": 27447931
    },
    {
      "name": "Bilboko Arte Eder museoa",
      "lat": 43.265545,
      "lon": -2.937981,
      "fame_score": 9,
      "name_es": "Museo de Bellas Artes de Bilbao",
      "name_en": "Bilbao Fine Arts Museum",
      "categories": [
        "tourism=museum",
        "building=yes"
      ],
      "wikipedia": "es:Museo de Bellas Artes de Bilbao",
      "wikidata": "Q127064",
      "address": "Museo plaza, 2, Bilbao",
      "osm_type": "way",
      "osm_id": 28211432
    },
    {
      "name": "Irungo Udaletxea",
      "lat": 43.337787,
      "lon": -1.788803,
      "fame_score": 9,
      "name_es": "Ayuntamiento de Irun",
      "name_en": "Irun Town Hall",
      "categories": [
        "historic=yes",
        "tourism=attraction",
        "amenity=townhall",
        "building=public"
      ],
      "wikidata": "Q20492832",
      "address": "San Juan Arri plaza, 1, Irun",
      "osm_type": "way",
      "osm_id": 38692122
    },
    {
      "name": "Butroeko gaztelua",
      "lat": 43.371714,
      "lon": -2.914253,
      "fame_score": 9,
      "name_es": "Castillo de Butrón",
      "name_ca": "Castell de Butroe",
      "name_en": "Butroe's castle",
      "categories": [
        "historic=castle",
        "building=yes"
      ],
      "wikipedia": "es:Castillo de Butrón",
      "wikidata": "Q5002745",
      "architect": "Francisco de Cubas",
      "year": "1888",
      "osm_type": "way",
      "osm_id": 42253870
    },
    {
      "name": "Done Jakue katedrala",
      "osm_type": "relation",
      "osm_id": 7560683,
      "categories": [
        "historic=church",
        "tourism=attraction",
        "amenity=place_of_worship",
        "building=cathedral"
      ],
      "fame_score": 9,
      "wikipedia": "es:Catedral de Santiago de Bilbao",
      "wikidata": "Q2350964",
      "needs_geocoding": true
    },
    {
      "name": "Arrikrutz Oñatiko Kobak",
      "lat": 42.996957,
      "lon": -2.427898,
      "fame_score": 8,
      "name_es": "Cuevas de Arrikrutz",
      "name_en": "Arrikrutz's caves",
      "categories": [
        "tourism=attraction"
      ],
      "description": "Haitzuloetako lehoi ((Panthera leo spelaea) baten eskeletoa osoa aurkitu zuten. Un squelette complet d’un lion des cavernes y a été découvert.",
      "wikipedia": "eu:Arrikrutzeko kobak",
      "wikidata": "Q12254132",
      "osm_type": "node",
      "osm_id": 123561791
    },
    {
      "name": "Bosque de Oma",
      "lat": 43.331944,
      "lon": -2.617778,
      "fame_score": 8,
      "name_es": "Bosque de Oma",
      "name_en": "Oma forest",
      "categories": [
        "tourism=artwork"
      ],
      "wikipedia": "es:Bosque de Oma",
      "wikidata": "Q3754883",
      "osm_type": "node",
      "osm_id": 1481314237
    },
    {
      "name": "Parque de Atracciones Monte Igueldo",
      "lat": 43.321069,
      "lon": -2.009847,
      "fame_score": 8,
      "name_es": "Parque de Atracciones Monte Igueldo",
      "name_en": "Mount Igueldo Amusement Park",
      "categories": [
        "tourism=theme_park"
      ],
      "wikipedia": "es:Parque de Atracciones Monte Igueldo",
      "wikidata": "Q12259436",
      "address": "Igeldo pasealekua, 183, Donostia / San Sebastián",
      "osm_type": "way",
      "osm_id": 23893893
    },
    {
      "name": "Donostiako Udaletxea",
      "lat": 43.321595,
      "lon": -1.985777,
      "fame_score": 8,
      "name_es": "Ayuntamiento de San Sebastián",
      "name_en": "San Sebastian City Hall",
      "categories": [
        "amenity=townhall",
        "building=government"
      ],
      "wikipedia": "eu:Donostiako udaletxea",
      "wikidata": "Q26252283",
      "address": "Donostia / San Sebastián",
      "osm_type": "way",
      "osm_id": 28211466
    },
    {
      "name": "Udaletxea",
      "lat": 43.124095,
      "lon": -1.979377,
      "fame_score": 8,
      "name_es": "Ayuntamiento",
      "name_en": "Townhall",
      "categories": [
        "historic=building",
        "amenity=townhall",
        "building=yes"
      ],
      "wikidata": "Q16516557",
      "address": "Herriko plaza, 1, Berastegi",
      "osm_type": "way",
      "osm_id": 52020102
    },
    {
      "name": "Debako zubia",
      "lat": 43.292799,
      "lon": -2.357075,
      "fame_score": 8,
      "name_es": "Puente de Deba",
      "name_en": "The Deba Bridge",
      "categories": [
        "historic=bridge",
        "man_made=bridge"
      ],
      "wikipedia": "eu:Deba-Mutriku zubia",
      "wikidata": "Q25474173",
      "osm_type": "way",
      "osm_id": 1366320748
    },
    {
      "name": "Lobera de Hoyo Viejo",
      "lat": 42.936713,
      "lon": -2.985518,
      "fame_score": 7,
      "name_en": "Wolf-trap (hole)",
      "categories": [
        "historic=ruins",
        "tourism=attraction",
        "man_made=trapping_pit"
      ],
      "description": "Ancient trap for wolf hunting",
      "wikipedia": "es:Monumento natural del Monte Santiago",
      "wikidata": "Q9035044",
      "osm_type": "node",
      "osm_id": 1743754025
    },
    {
      "name": "Sorginaren Txabola",
      "lat": 42.567613,
      "lon": -2.553562,
      "fame_score": 7,
      "name_es": "La Chabola de la Hechicera",
      "name_en": "Sorginaren Txabola",
      "categories": [
        "historic=archaeological_site"
      ],
      "wikidata": "Q8344449",
      "osm_type": "node",
      "osm_id": 1783552001
    },
    {
      "name": "Cromlechs Mulisko Gaina",
      "lat": 43.228192,
      "lon": -1.94639,
      "fame_score": 7,
      "name_es": "Cromlechs Mulisko Gaina",
      "categories": [
        "historic=archaeological_site",
        "tourism=attraction"
      ],
      "wikipedia": "eu:Mulisko gaina (multzo megalitikoa)",
      "wikidata": "Q16518404",
      "osm_type": "node",
      "osm_id": 2282245623
    },
    {
      "name": "Tall Tree & the Eye",
      "lat": 43.26918,
      "lon": -2.934537,
      "fame_score": 7,
      "name_es": "El gran árbol y el ojo",
      "name_en": "Tall Tree & the Eye",
      "categories": [
        "tourism=artwork"
      ],
      "wikidata": "Q108616485",
      "year": "2009",
      "osm_type": "node",
      "osm_id": 4118860989
    },
    {
      "name": "Menosca, Zarauzko Arte eta Historia Museoa",
      "lat": 43.286323,
      "lon": -2.177489,
      "fame_score": 7,
      "name_es": "Menosca, Museo de Arte e Historia",
      "name_en": "Menosca, Art and History Museum of Zarautz",
      "categories": [
        "tourism=museum"
      ],
      "wikidata": "Q63171126",
      "address": "Elizaurre kalea, 1, Zarautz",
      "osm_type": "node",
      "osm_id": 4438956427
    },
    {
      "name": "Elizbarrutiko Arte Sakratuaren museoa",
      "lat": 42.845155,
      "lon": -2.677103,
      "fame_score": 7,
      "name_es": "Museo Diocesano de Arte Sacro",
      "name_en": "Diocesan Museum of Sacred Art",
      "categories": [
        "tourism=museum"
      ],
      "wikipedia": "es:Museo Diocesano de Arte Sacro de Álava",
      "wikidata": "Q3330323",
      "osm_type": "node",
      "osm_id": 4528717653
    },
    {
      "name": "Hipogeo de Longar",
      "lat": 42.577462,
      "lon": -2.393447,
      "fame_score": 7,
      "name_es": "Hipogeo de Longar",
      "categories": [
        "historic=ruins"
      ],
      "wikipedia": "eu:Longarreko hipogeoa",
      "wikidata": "Q66123025",
      "osm_type": "node",
      "osm_id": 5505646668
    },
    {
      "name": "Soinuenea",
      "lat": 43.288265,
      "lon": -1.838286,
      "fame_score": 7,
      "name_es": "Soinuenea, centro de la música popular",
      "name_en": "Soinuenea, traditional music center",
      "categories": [
        "tourism=museum"
      ],
      "wikipedia": "eu:Soinuenea",
      "wikidata": "Q12259074",
      "osm_type": "node",
      "osm_id": 10943758105
    },
    {
      "name": "Debako zubia",
      "lat": 43.292529,
      "lon": -2.356184,
      "fame_score": 7,
      "name_es": "Puente de Deva",
      "name_en": "The Deba Bridge",
      "categories": [
        "tourism=artwork"
      ],
      "osm_type": "node",
      "osm_id": 12652071376
    },
    {
      "name": "Santa Maria basilika",
      "lat": 43.323874,
      "lon": -1.986673,
      "fame_score": 7,
      "name_es": "Basílica de Santa María",
      "name_en": "Basilica of Saint Mary of the Chorus",
      "categories": [
        "historic=church",
        "amenity=place_of_worship",
        "building=church"
      ],
      "wikidata": "Q2842138",
      "religion": "christian",
      "denomination": "catholic",
      "osm_type": "way",
      "osm_id": 27263141
    },
    {
      "name": "Mota gaztelua",
      "lat": 43.324982,
      "lon": -1.988904,
      "fame_score": 7,
      "name_es": "Castillo de la Mota",
      "name_en": "La Mota Castle",
      "categories": [
        "historic=castle",
        "tourism=attraction",
        "building=yes"
      ],
      "wikidata": "Q12268644",
      "osm_type": "way",
      "osm_id": 28156564
    },
    {
      "name": "Arriaga antzokia",
      "lat": 43.259494,
      "lon": -2.92487,
      "fame_score": 7,
      "name_es": "Teatro Arriaga",
      "name_en": "Arriaga Theatre",
      "categories": [
        "amenity=theatre",
        "building=government"
      ],
      "wikipedia": "es:Teatro Arriaga",
      "wikidata": "Q3750900",
      "address": "Arriaga plaza, 1, Bilbao",
      "osm_type": "way",
      "osm_id": 28320546
    },
    {
      "name": "Ama Xantalen ermita",
      "lat": 43.335434,
      "lon": -1.785246,
      "fame_score": 7,
      "name_es": "Ermita Santa Elena",
      "categories": [
        "historic=archaeological_site",
        "tourism=attraction",
        "amenity=place_of_worship",
        "building=chapel"
      ],
      "wikidata": "Q40738442",
      "address": "Ermita kalea, 2, Irun",
      "religion": "christian",
      "denomination": "roman_catholic",
      "osm_type": "way",
      "osm_id": 43067972
    },
    {
      "name": "Arma museoa",
      "lat": 42.841166,
      "lon": -2.678588,
      "fame_score": 7,
      "name_es": "Museo de Armería",
      "name_en": "Armoury Museum",
      "categories": [
        "tourism=museum",
        "building=yes"
      ],
      "wikipedia": "es:Museo de Armería de Álava",
      "wikidata": "Q3329560",
      "address": "Frai Francisco Vitoria ibilbidea, 3, Vitoria-Gasteiz",
      "osm_type": "way",
      "osm_id": 82254378
    },
    {
      "name": "Torreón",
      "lat": 43.321386,
      "lon": -2.009581,
      "fame_score": 7,
      "name_es": "Torreón",
      "name_en": "The Tower",
      "categories": [
        "building=tower",
        "man_made=tower"
      ],
      "architect": "Luis Elizalde",
      "year": "1912",
      "osm_type": "way",
      "osm_id": 168045920
    },
    {
      "name": "Victor Hugo Extea",
      "lat": 43.325849,
      "lon": -1.919846,
      "fame_score": 7,
      "name_es": "Casa de Victor Hugo",
      "name_en": "Victor Hugo House",
      "categories": [
        "historic=building",
        "tourism=museum",
        "building=yes"
      ],
      "wikidata": "Q63170852",
      "address": "Donibane kalea, 63, Pasaia",
      "osm_type": "way",
      "osm_id": 210623696
    },
    {
      "name": "Castillo de Muñatones",
      "lat": 43.325064,
      "lon": -3.109265,
      "fame_score": 7,
      "name_es": "Castillo de Muñatones",
      "name_en": "Muñatones Castle",
      "categories": [
        "historic=castle",
        "building=yes"
      ],
      "wikipedia": "es:Castillo de Muñatones",
      "wikidata": "Q8342484",
      "address": "San Martin auzoa",
      "osm_type": "way",
      "osm_id": 278060656
    },
    {
      "name": "Igartza burdinola",
      "lat": 43.046928,
      "lon": -2.208444,
      "fame_score": 7,
      "name_es": "Ferrería Igartza",
      "name_en": "Igartza foundry",
      "categories": [
        "historic=blacksmith",
        "building=yes"
      ],
      "wikidata": "Q65703379",
      "osm_type": "way",
      "osm_id": 400843726
    },
    {
      "name": "Reale Arena",
      "lat": 43.30135,
      "lon": -1.973556,
      "fame_score": 7,
      "name_es": "Reale Arena",
      "name_en": "Reale Arena",
      "categories": [
        "leisure=stadium"
      ],
      "wikipedia": "eu:Anoeta estadioa",
      "wikidata": "Q917845",
      "year": "1993",
      "address": "Anoeta pasealekua, 1, Donostia / San Sebastián",
      "osm_type": "way",
      "osm_id": 1426500083
    },
    {
      "name": "Colegiata de Santa María",
      "osm_type": "relation",
      "osm_id": 2214788,
      "categories": [
        "amenity=place_of_worship",
        "building=church"
      ],
      "fame_score": 7,
      "wikipedia": "eu:Santa Mariaren kolegiata (Valpuesta)",
      "wikidata": "Q33886941",
      "needs_geocoding": true
    },
    {
      "name": "Inaziotar bidea",
      "osm_type": "relation",
      "osm_id": 6076801,
      "categories": [
        "historic=yes"
      ],
      "fame_score": 7,
      "wikidata": "Q39080972",
      "needs_geocoding": true
    },
    {
      "name": "Donostiako Aquariuma",
      "lat": 43.322901,
      "lon": -1.992119,
      "fame_score": 6,
      "name_es": "Aquarium",
      "name_en": "Aquarium",
      "categories": [
        "tourism=museum"
      ],
      "address": "Carlos Blasco de Imaz plaza, 1, Donostia / San Sebastián",
      "osm_type": "node",
      "osm_id": 259491671
    },
    {
      "name": "Euskal Itsas Museoa",
      "lat": 43.322995,
      "lon": -1.991047,
      "fame_score": 6,
      "name_es": "Museo Marítimo Vasco",
      "name_en": "Basque Maritime Museum",
      "categories": [
        "tourism=museum"
      ],
      "description": "El Museo fue inaugurado en 1991 bajo el nombre de Museo Naval, cambia de nombre a Museo Marítimo Vasco en 2017, en la antigua Casa-Torre del Consulado de San Sebastián. Es uno de los pocos edificios civiles que se salvaron de la destrucción en 1813.",
      "address": "Kaiko pasealekua, 24, Donostia / San Sebastián",
      "osm_type": "node",
      "osm_id": 299248200
    },
    {
      "name": "Salto del Nervión",
      "lat": 42.938918,
      "lon": -2.980932,
      "fame_score": 6,
      "name_es": "Salto del Nervión",
      "categories": [
        "tourism=attraction"
      ],
      "wikipedia": "es:Salto del Nervión",
      "wikidata": "Q3331650",
      "osm_type": "node",
      "osm_id": 1743714029
    },
    {
      "name": "Eteneta I harrespila",
      "lat": 43.200268,
      "lon": -1.96407,
      "fame_score": 6,
      "name_es": "Crómlech de Eteneta I",
      "categories": [
        "historic=archaeological_site"
      ],
      "wikidata": "Q19482368",
      "osm_type": "node",
      "osm_id": 2181245871
    },
    {
      "name": "Goiuriko ur-jauzia",
      "lat": 42.976016,
      "lon": -2.911583,
      "fame_score": 6,
      "name_es": "Cascada de Gujuli",
      "categories": [
        "tourism=attraction"
      ],
      "wikipedia": "eu:Goiuriko ur-jauzia",
      "wikidata": "Q118549",
      "osm_type": "node",
      "osm_id": 2208502997
    },
    {
      "name": "Castro del Cerco Bolumburu",
      "lat": 43.195315,
      "lon": -3.154871,
      "fame_score": 6,
      "name_es": "Castro del Cerco Bolumburu",
      "categories": [
        "historic=archaeological_site"
      ],
      "wikipedia": "eu:Bolunburuko esparruko herrixka gotortua",
      "wikidata": "Q104610335",
      "osm_type": "node",
      "osm_id": 2851957575
    },
    {
      "name": "Tulips",
      "lat": 43.269109,
      "lon": -2.933892,
      "fame_score": 6,
      "name_es": "Tulipanes",
      "name_en": "Tulips",
      "categories": [
        "tourism=artwork"
      ],
      "year": "1995",
      "osm_type": "node",
      "osm_id": 4118860388
    },
    {
      "name": "Labirinto zuria",
      "lat": 43.367189,
      "lon": -1.869675,
      "fame_score": 6,
      "name_es": "Labirinto blanco",
      "name_en": "white maze",
      "categories": [
        "tourism=viewpoint"
      ],
      "osm_type": "node",
      "osm_id": 4463586137
    },
    {
      "name": "Erlojua",
      "lat": 43.184424,
      "lon": -2.473349,
      "fame_score": 6,
      "name_es": "Reloj",
      "name_en": "Clock",
      "categories": [
        "tourism=artwork"
      ],
      "osm_type": "node",
      "osm_id": 5319900111
    },
    {
      "name": "Erentzingo paramudrak",
      "lat": 43.373539,
      "lon": -1.859589,
      "fame_score": 6,
      "name_es": "Paramoudras de Erentzin",
      "name_en": "Erentzin's paramoudras",
      "categories": [
        "tourism=viewpoint"
      ],
      "osm_type": "node",
      "osm_id": 5460962662
    },
    {
      "name": "Paramudrak",
      "lat": 43.372377,
      "lon": -1.859858,
      "fame_score": 6,
      "name_es": "Paramoudras",
      "name_en": "Paramoudras",
      "categories": [
        "tourism=attraction"
      ],
      "osm_type": "node",
      "osm_id": 5460962663
    },
    {
      "name": "Pastor",
      "lat": 42.937034,
      "lon": -2.985263,
      "fame_score": 6,
      "name_es": "Pastor persiguiendo al lobo",
      "name_en": "Shepherd scares away a wolf",
      "categories": [
        "tourism=artwork"
      ],
      "osm_type": "node",
      "osm_id": 7432131197
    },
    {
      "name": "Lobo",
      "lat": 42.936473,
      "lon": -2.985584,
      "fame_score": 6,
      "name_es": "Lobo",
      "name_en": "Wolf",
      "categories": [
        "tourism=artwork"
      ],
      "osm_type": "node",
      "osm_id": 7432131200
    },
    {
      "name": "Labetxuko sakana",
      "lat": 43.363878,
      "lon": -1.871177,
      "fame_score": 6,
      "name_es": "Cañón de Labetxu",
      "name_en": "Labetxu canyon",
      "categories": [
        "tourism=viewpoint"
      ],
      "osm_type": "node",
      "osm_id": 7798558385
    },
    {
      "name": "Erentzingo paramudrak",
      "lat": 43.374303,
      "lon": -1.856952,
      "fame_score": 6,
      "name_es": "Paramoudras de Erentzin",
      "name_en": "Erentzin's paramoudras",
      "categories": [
        "tourism=viewpoint"
      ],
      "osm_type": "node",
      "osm_id": 7887347395
    },
    {
      "name": "Fire Fountain",
      "lat": 43.269085,
      "lon": -2.933447,
      "fame_score": 6,
      "name_es": "Fuente de fuego",
      "name_en": "Fire Fountain",
      "categories": [
        "tourism=artwork"
      ],
      "description": "La escultura Fuente de fuego (1961) consiste en cinco fuentes de fuego con chorros de fuego sobre una lámina de agua. Esta ubicada en los estanques del exterior del edificio del Museo Guggenheim Bilbao.",
      "year": "1961",
      "osm_type": "node",
      "osm_id": 11648908009
    },
    {
      "name": "Euskadiko Arkitektura Institutua",
      "lat": 43.324053,
      "lon": -1.98726,
      "fame_score": 6,
      "name_es": "Instituto de Arquitectura de Euskadi",
      "name_en": "Institute of Architecture of the Basque Country",
      "categories": [
        "tourism=museum"
      ],
      "address": "Elbira Zipitria kalea, 1",
      "osm_type": "node",
      "osm_id": 13517916680
    },
    {
      "name": "Artzain Onaren katedrala",
      "lat": 43.316887,
      "lon": -1.981694,
      "fame_score": 6,
      "name_es": "Catedral del Buen Pastor",
      "categories": [
        "amenity=place_of_worship",
        "building=cathedral"
      ],
      "wikidata": "Q2942904",
      "address": "Artzai Onaren plaza",
      "religion": "christian",
      "denomination": "catholic",
      "osm_type": "way",
      "osm_id": 28211382
    },
    {
      "name": "Ataria",
      "lat": 42.860249,
      "lon": -2.642263,
      "fame_score": 6,
      "name_es": "Ataria",
      "name_en": "Ataria",
      "categories": [
        "tourism=museum",
        "building=yes"
      ],
      "wikidata": "Q4812847",
      "address": "Biosferaren ibilbidea, 4, Vitoria-Gasteiz",
      "osm_type": "way",
      "osm_id": 41248969
    },
    {
      "name": "Iglesia de Nuestra Señora de la Asunción y del Manzano",
      "lat": 43.363011,
      "lon": -1.790882,
      "fame_score": 6,
      "name_es": "Iglesia de Nuestra Señora de la Asunción y del Manzano",
      "categories": [
        "historic=yes",
        "amenity=place_of_worship",
        "building=church"
      ],
      "wikidata": "Q19672446",
      "address": "Kale Nagusia, 1, Hondarribia",
      "religion": "christian",
      "denomination": "roman_catholic",
      "osm_type": "way",
      "osm_id": 44493576
    },
    {
      "name": "Guadalupeko ermita",
      "lat": 43.366989,
      "lon": -1.820937,
      "fame_score": 6,
      "name_es": "Santuario de la Virgen de Guadalupe",
      "categories": [
        "historic=yes",
        "tourism=attraction",
        "amenity=place_of_worship",
        "building=yes"
      ],
      "wikipedia": "eu:Guadalupeko baseliza",
      "wikidata": "Q12258757",
      "address": "Gornutz-Montaña auzoa, 26, Hondarribia",
      "religion": "christian",
      "denomination": "catholic",
      "osm_type": "way",
      "osm_id": 54564263
    },
    {
      "name": "Getxoko Udaletxea",
      "lat": 43.343226,
      "lon": -3.007626,
      "fame_score": 6,
      "name_es": "Ayuntamiento de Getxo",
      "categories": [
        "amenity=townhall",
        "building=yes"
      ],
      "wikipedia": "en:Getxo",
      "wikidata": "Q59142739",
      "osm_type": "way",
      "osm_id": 98282759
    },
    {
      "name": "Andre Mariaren Jasokundearen eliza",
      "lat": 42.819069,
      "lon": -2.690597,
      "fame_score": 6,
      "name_es": "Iglesia de Nuestra Señora de la Asunción",
      "categories": [
        "amenity=place_of_worship",
        "building=yes"
      ],
      "wikipedia": "es:Iglesia de Nuestra Señora de la Asunción (Lasarte)",
      "wikidata": "Q9006906",
      "style": "gothic",
      "address": "Kale Nagusia, 11, Lasarte",
      "religion": "christian",
      "denomination": "roman_catholic",
      "osm_type": "way",
      "osm_id": 103929827
    },
    {
      "name": "Jesusen Bihotza eliza",
      "lat": 43.260868,
      "lon": -2.929759,
      "fame_score": 6,
      "name_es": "Iglesia del Sagrado Corazón",
      "categories": [
        "amenity=place_of_worship",
        "building=church"
      ],
      "wikipedia": "es:Iglesia del Sagrado Corazón (Bilbao)",
      "wikidata": "Q9007710",
      "architect": "José María de Basterra",
      "year": "1890",
      "style": "neo-gothic",
      "religion": "christian",
      "denomination": "roman_catholic",
      "osm_type": "way",
      "osm_id": 110726474
    },
    {
      "name": "Casa Casadevante",
      "lat": 43.362656,
      "lon": -1.791143,
      "fame_score": 6,
      "name_es": "Palacio de Casadevante",
      "categories": [
        "historic=yes",
        "building=yes"
      ],
      "wikipedia": "eu:Casadevante jauregia",
      "wikidata": "Q20492255",
      "osm_type": "way",
      "osm_id": 157977944
    },
    {
      "name": "Zaldiko Maldikoa",
      "lat": 43.320783,
      "lon": -1.985544,
      "fame_score": 6,
      "name_es": "Tiovivo Belle Époque",
      "name_en": "Belle Époque Carousel",
      "categories": [
        "tourism=attraction",
        "building=yes"
      ],
      "osm_type": "way",
      "osm_id": 183791498
    },
    {
      "name": "Hotel Marqués de Riscal",
      "lat": 42.511685,
      "lon": -2.617685,
      "fame_score": 6,
      "name_es": "Hotel Marqués de Riscal",
      "categories": [
        "tourism=attraction",
        "building=hotel"
      ],
      "wikipedia": "eu:Marqués de Riscal hotela",
      "wikidata": "Q1630957",
      "architect": "Frank Gehry",
      "osm_type": "way",
      "osm_id": 195419042
    },
    {
      "name": "Matxitxako",
      "lat": 43.45535,
      "lon": -2.752846,
      "fame_score": 6,
      "name_es": "Faro de Cabo Machichaco",
      "categories": [
        "building=yes",
        "man_made=lighthouse"
      ],
      "wikipedia": "es:Faro de Cabo Machichaco",
      "wikidata": "Q10971033",
      "year": "1852",
      "osm_type": "way",
      "osm_id": 227917522
    },
    {
      "name": "Enkarterrietako Museoa",
      "lat": 43.229184,
      "lon": -3.161457,
      "fame_score": 6,
      "name_es": "Museo de Las Encartaciones",
      "categories": [
        "tourism=museum",
        "building=yes"
      ],
      "wikipedia": "eu:Enkarterrietako Museoa",
      "wikidata": "Q68037238",
      "osm_type": "way",
      "osm_id": 271786763
    },
    {
      "name": "Santa Maria atea",
      "lat": 43.361826,
      "lon": -1.791457,
      "fame_score": 6,
      "name_es": "Puerta de Santa María",
      "categories": [
        "historic=city_gate",
        "building=yes"
      ],
      "wikidata": "Q12267000",
      "osm_type": "way",
      "osm_id": 351694977
    },
    {
      "name": "BiBat",
      "lat": 42.849551,
      "lon": -2.671117,
      "fame_score": 6,
      "name_es": "Museo Bibat Arqueología - Museo Fournier de Naipes",
      "name_en": "Bibat. Fournier Museum of Archaeology",
      "categories": [
        "tourism=museum",
        "building=yes"
      ],
      "wikidata": "Q3036438",
      "address": "Aiztogile kalea, 54, Vitoria-Gasteiz",
      "osm_type": "way",
      "osm_id": 440231255
    },
    {
      "name": "Iglesia de San José de la Montaña / San Jose Mendikoaren eliza",
      "lat": 43.264857,
      "lon": -2.936017,
      "fame_score": 6,
      "name_es": "Iglesia de San José de la Montaña",
      "categories": [
        "historic=church",
        "amenity=place_of_worship",
        "building=church"
      ],
      "wikipedia": "es:Iglesia de San José de la Montaña",
      "wikidata": "Q20492660",
      "architect": "José María de Basterra",
      "year": "1908",
      "religion": "christian",
      "denomination": "catholic",
      "osm_type": "way",
      "osm_id": 518582008
    },
    {
      "name": "Kordoi etxea",
      "lat": 42.848172,
      "lon": -2.670527,
      "fame_score": 6,
      "name_es": "Casa del Cordón",
      "categories": [
        "tourism=museum",
        "building=civic"
      ],
      "wikidata": "Q2940781",
      "address": "Aiztogile kalea, 24, Vitoria-Gasteiz",
      "osm_type": "way",
      "osm_id": 578911086
    },
    {
      "name": "Gabiria dorrea",
      "lat": 43.110997,
      "lon": -2.415219,
      "fame_score": 6,
      "name_es": "Casa de Gaviria",
      "categories": [
        "historic=castle",
        "building=yes"
      ],
      "wikipedia": "eu:Gabiria dorrea",
      "wikidata": "Q9088813",
      "address": "Gabiria kalea, 4, Bergara",
      "osm_type": "way",
      "osm_id": 664802187
    },
    {
      "name": "Autobuserako plataforma birakaria",
      "lat": 43.402524,
      "lon": -2.639382,
      "fame_score": 6,
      "name_es": "Plataforma de autobús giratoria",
      "name_en": "Rotating bus platform",
      "categories": [
        "tourism=attraction"
      ],
      "year": "1991",
      "osm_type": "way",
      "osm_id": 1288868434
    },
    {
      "name": "Iruña-Veleiako zirkua",
      "lat": 42.837195,
      "lon": -2.784327,
      "fame_score": 6,
      "name_es": "Circo de Iruña-Veleia",
      "name_en": "Circus of Iruña-Veleia",
      "categories": [
        "historic=archaeological_site"
      ],
      "wikidata": "Q127515157",
      "osm_type": "way",
      "osm_id": 1303142243
    },
    {
      "name": "Oñatiko \"Sancti Spiritus\" unibertsitatea",
      "osm_type": "relation",
      "osm_id": 8207366,
      "categories": [
        "historic=monument",
        "building=yes"
      ],
      "fame_score": 6,
      "wikipedia": "es:Universidad de Oñate",
      "wikidata": "Q339482",
      "needs_geocoding": true
    },
    {
      "name": "Pozalagua-ko kobak",
      "lat": 43.260478,
      "lon": -3.385717,
      "fame_score": 5,
      "name_es": "Cueva de Pozalagua",
      "categories": [
        "tourism=attraction"
      ],
      "wikipedia": "es:Cueva de Pozalagua",
      "wikidata": "Q6553574",
      "osm_type": "node",
      "osm_id": 505074043
    },
    {
      "name": "Dolmen Jentilarri",
      "lat": 42.99248,
      "lon": -2.107651,
      "fame_score": 5,
      "name_es": "Dolmen Jentilarri",
      "categories": [
        "historic=archaeological_site"
      ],
      "wikidata": "Q3177215",
      "osm_type": "node",
      "osm_id": 564644906
    },
    {
      "name": "Sandaili ermita",
      "lat": 42.997481,
      "lon": -2.439641,
      "fame_score": 5,
      "name_es": "Ermita de San Elias",
      "categories": [
        "amenity=place_of_worship"
      ],
      "wikipedia": "eu:Sandaili baseliza",
      "wikidata": "Q25474289",
      "address": "Araotz auzoa, 57B, Oñati",
      "religion": "christian",
      "osm_type": "node",
      "osm_id": 618611641
    },
    {
      "name": "Don Quijote eta Sancho Panza",
      "lat": 43.319076,
      "lon": -1.98472,
      "fame_score": 5,
      "name_es": "Don Quijote y Sancho Panza",
      "name_en": "Don Quijote and Sancho Panza",
      "categories": [
        "tourism=artwork"
      ],
      "osm_type": "node",
      "osm_id": 1942069484
    },
    {
      "name": "Gipuzkoako Argazkilari Elkartea",
      "lat": 43.32581,
      "lon": -1.984789,
      "fame_score": 5,
      "name_es": "Sociedad Fotográfica de Guipuzcoa",
      "name_en": "Photographic Society of Gipuzkoa",
      "categories": [
        "amenity=arts_centre"
      ],
      "address": "Pasealeku Berria, 27, Donostia / San Sebastián",
      "osm_type": "node",
      "osm_id": 2158186454
    },
    {
      "name": "Ingelesen Hilerria",
      "lat": 43.32578,
      "lon": -1.988509,
      "fame_score": 5,
      "name_es": "Cementerio de los Ingleses",
      "name_en": "English Cemetery",
      "categories": [
        "historic=memorial"
      ],
      "osm_type": "node",
      "osm_id": 2390209546
    },
    {
      "name": "Oindi Zista",
      "lat": 43.232228,
      "lon": -1.951256,
      "fame_score": 5,
      "name_es": "Cista Onyi",
      "categories": [
        "historic=archaeological_site"
      ],
      "osm_type": "node",
      "osm_id": 2706096921
    },
    {
      "name": "Cueva de los Moros",
      "lat": 42.872924,
      "lon": -3.164522,
      "fame_score": 5,
      "name_es": "Cueva de los Moros",
      "categories": [
        "tourism=attraction"
      ],
      "wikipedia": "es:Cueva de los Moros (Corro)",
      "wikidata": "Q115867328",
      "osm_type": "node",
      "osm_id": 2727834644
    },
    {
      "name": "Dolmen Venta de Zarate",
      "lat": 43.22817,
      "lon": -2.07923,
      "fame_score": 5,
      "name_es": "Dolmen Venta de Zarate",
      "categories": [
        "historic=archaeological_site"
      ],
      "wikidata": "Q116922076",
      "osm_type": "node",
      "osm_id": 2752617890
    },
    {
      "name": "Aguaque",
      "lat": 42.711002,
      "lon": -2.397963,
      "fame_score": 5,
      "name_es": "Aguaque",
      "categories": [
        "tourism=attraction"
      ],
      "wikipedia": "eu:Aguaqué",
      "wikidata": "Q108914125",
      "osm_type": "node",
      "osm_id": 2912770465
    },
    {
      "name": "Dolmen Intxusburu",
      "lat": 42.94002,
      "lon": -2.159297,
      "fame_score": 5,
      "name_es": "Dolmen Intxusburu",
      "categories": [
        "historic=archaeological_site"
      ],
      "wikidata": "Q66122156",
      "osm_type": "node",
      "osm_id": 3334352184
    },
    {
      "name": "Túmulo Tontortxiki I",
      "lat": 43.294313,
      "lon": -2.085365,
      "fame_score": 5,
      "name_es": "Túmulo Tontortxiki I",
      "categories": [
        "historic=archaeological_site"
      ],
      "wikidata": "Q96639702",
      "osm_type": "node",
      "osm_id": 3334436822
    },
    {
      "name": "Túmulo Tontortxiki II",
      "lat": 43.294067,
      "lon": -2.088127,
      "fame_score": 5,
      "name_es": "Túmulo Tontortxiki II",
      "categories": [
        "historic=archaeological_site"
      ],
      "wikidata": "Q96639680",
      "osm_type": "node",
      "osm_id": 3334436823
    },
    {
      "name": "Monolito Txoritokieta",
      "lat": 43.289155,
      "lon": -1.919981,
      "fame_score": 5,
      "name_es": "Monolito Txoritokieta",
      "categories": [
        "historic=archaeological_site"
      ],
      "wikipedia": "eu:Txoritokieta zutarria",
      "wikidata": "Q98009510",
      "osm_type": "node",
      "osm_id": 3334738316
    },
    {
      "name": "Albaola Itsas Kultur Faktoria",
      "lat": 43.329205,
      "lon": -1.92594,
      "fame_score": 5,
      "name_es": "La Factoría Marítima Vasca",
      "categories": [
        "tourism=museum"
      ],
      "wikipedia": "eu:Albaola Itsas Kultur Erakundea",
      "wikidata": "Q20035625",
      "osm_type": "node",
      "osm_id": 3971804099
    },
    {
      "name": "Itaidako zutarria",
      "lat": 42.81291,
      "lon": -2.279413,
      "fame_score": 5,
      "name_es": "Menhir de Itaida",
      "name_en": "Menhir of Itaida",
      "categories": [
        "historic=archaeological_site"
      ],
      "osm_type": "node",
      "osm_id": 3974566977
    },
    {
      "name": "Dorrea 1",
      "lat": 43.332452,
      "lon": -1.895702,
      "fame_score": 5,
      "name_es": "Torre 1",
      "name_en": "Tower 1",
      "categories": [
        "tourism=viewpoint"
      ],
      "osm_type": "node",
      "osm_id": 4333090253
    },
    {
      "name": "Estatua de Ken Follett",
      "lat": 42.851181,
      "lon": -2.672748,
      "fame_score": 5,
      "name_es": "Estatua de Ken Follett",
      "name_en": "Statue of Ken Follett",
      "categories": [
        "tourism=artwork"
      ],
      "osm_type": "node",
      "osm_id": 4466223689
    },
    {
      "name": "Bertxingo bisera",
      "lat": 43.183552,
      "lon": -1.995746,
      "fame_score": 5,
      "name_es": "Visera de Bertxin",
      "categories": [
        "tourism=attraction"
      ],
      "osm_type": "node",
      "osm_id": 4816435196
    },
    {
      "name": "Arlobiko zutarria",
      "lat": 43.031557,
      "lon": -2.828681,
      "fame_score": 5,
      "name_es": "Menhir de Arlobi",
      "categories": [
        "historic=archaeological_site"
      ],
      "wikidata": "Q4792436",
      "osm_type": "node",
      "osm_id": 4855538774
    },
    {
      "name": "EHUren Arabako Campuseko liburutegia",
      "lat": 42.838115,
      "lon": -2.67368,
      "fame_score": 5,
      "name_es": "Biblioteca del Campus de Álava de la UPV",
      "name_en": "University Library",
      "categories": [
        "amenity=library"
      ],
      "wikidata": "Q95144895",
      "osm_type": "node",
      "osm_id": 5398541825
    },
    {
      "name": "Large figure in a shelter",
      "lat": 43.314604,
      "lon": -2.681234,
      "fame_score": 5,
      "name_es": "Gran figura en un refugio",
      "name_en": "Large figure in a shelter",
      "categories": [
        "historic=monument",
        "tourism=artwork"
      ],
      "description": "Monumento a la paz",
      "osm_type": "node",
      "osm_id": 5884495369
    },
    {
      "name": "Andresa Portugal, arrain-saltzailea.",
      "lat": 43.323228,
      "lon": -1.982908,
      "fame_score": 5,
      "name_es": "Andresa Portugal, vendedora de pescado.",
      "name_en": "Andresa Portugal, fish seller.",
      "categories": [
        "tourism=artwork"
      ],
      "osm_type": "node",
      "osm_id": 5991298398
    },
    {
      "name": "Perretxiko itxurako harria",
      "lat": 42.830911,
      "lon": -2.298803,
      "fame_score": 5,
      "name_es": "Roca en forma de seta",
      "name_en": "Roche en forme de champignon",
      "categories": [
        "tourism=attraction"
      ],
      "osm_type": "node",
      "osm_id": 6841931585
    },
    {
      "name": "Grupo de Teatro Alproja",
      "lat": 43.277285,
      "lon": -2.178544,
      "fame_score": 5,
      "name_es": "Grupo de Teatro Alproja",
      "name_ca": "Grup de teatre Alproja",
      "name_en": "Alproja Theatre Group",
      "categories": [
        "amenity=theatre"
      ],
      "address": "Urdaneta bidea, 13",
      "osm_type": "node",
      "osm_id": 7058140485
    },
    {
      "name": "Pastor",
      "lat": 42.936636,
      "lon": -2.985569,
      "fame_score": 5,
      "name_en": "Shepherd scares away a wolf",
      "categories": [
        "tourism=artwork"
      ],
      "osm_type": "node",
      "osm_id": 7432131199
    },
    {
      "name": "Adar elektroakustikoa",
      "lat": 43.332465,
      "lon": -2.972083,
      "fame_score": 5,
      "name_es": "El cuerno electro-acústico",
      "name_en": "The electro-acoustic horn",
      "categories": [
        "tourism=artwork"
      ],
      "year": "1994",
      "osm_type": "node",
      "osm_id": 8322172927
    },
    {
      "name": "Zuloaga etxea liburutegia",
      "lat": 43.362815,
      "lon": -1.791456,
      "fame_score": 5,
      "name_es": "Casa Zuloaga",
      "name_en": "Zuloaga etxea library",
      "categories": [
        "historic=castle",
        "amenity=library"
      ],
      "description": "XVIII. mendeko Zuloaga Etxe eraberrituan dago kokatuta Udal Liburutegia. Instalazioan 160 postu daude, horietako gehienak irakurketara bideratuak.",
      "wikidata": "Q64363545",
      "year": "1992-02-15",
      "address": "Kale Nagusia, 8",
      "osm_type": "node",
      "osm_id": 8836168351
    },
    {
      "name": "Kultur Leioa liburutegia",
      "lat": 43.326556,
      "lon": -2.986026,
      "fame_score": 5,
      "name_es": "Biblioteca Kultur Leioa",
      "categories": [
        "amenity=library"
      ],
      "wikipedia": "eu:Leioako Udal Liburutegia",
      "wikidata": "Q16518174",
      "address": "Jose Ramon Aketxe plaza, 11, Leioa",
      "osm_type": "node",
      "osm_id": 10069091337
    },
    {
      "name": "7 Piedra caliza",
      "lat": 43.267084,
      "lon": -2.934862,
      "fame_score": 5,
      "name_es": "7 Piedra caliza",
      "name_en": "7 Limestone",
      "categories": [
        "tourism=artwork"
      ],
      "year": "2023",
      "osm_type": "node",
      "osm_id": 11282359412
    },
    {
      "name": "6 Arenisca",
      "lat": 43.266448,
      "lon": -2.935058,
      "fame_score": 5,
      "name_es": "6 Arenisca",
      "name_en": "6 Sandstone",
      "categories": [
        "tourism=artwork"
      ],
      "year": "2023",
      "osm_type": "node",
      "osm_id": 11282359413
    },
    {
      "name": "5 Basalto",
      "lat": 43.265975,
      "lon": -2.935255,
      "fame_score": 5,
      "name_es": "5 Basalto",
      "name_en": "5 Basalt",
      "categories": [
        "tourism=artwork"
      ],
      "year": "2023",
      "osm_type": "node",
      "osm_id": 11282359414
    },
    {
      "name": "4 Siderita",
      "lat": 43.265577,
      "lon": -2.935422,
      "fame_score": 5,
      "name_es": "4 Siderita",
      "name_en": "4 Siderite",
      "categories": [
        "tourism=artwork"
      ],
      "year": "2023",
      "osm_type": "node",
      "osm_id": 11282359415
    },
    {
      "name": "3 Goethita",
      "lat": 43.26525,
      "lon": -2.935551,
      "fame_score": 5,
      "name_es": "3 Goethita",
      "name_en": "3 Goethite",
      "categories": [
        "tourism=artwork"
      ],
      "year": "2023",
      "osm_type": "node",
      "osm_id": 11282359416
    },
    {
      "name": "2 Limonita",
      "lat": 43.264892,
      "lon": -2.935777,
      "fame_score": 5,
      "name_es": "2 Limonita",
      "name_en": "2 Limonite",
      "categories": [
        "tourism=artwork"
      ],
      "year": "2023",
      "osm_type": "node",
      "osm_id": 11282359417
    },
    {
      "name": "1 Calcita",
      "lat": 43.264413,
      "lon": -2.935862,
      "fame_score": 5,
      "name_es": "1 Calcita",
      "name_en": "1 Calcite",
      "categories": [
        "tourism=artwork"
      ],
      "year": "2023",
      "osm_type": "node",
      "osm_id": 11282359418
    },
    {
      "name": "Biriatou et le réseau Comète",
      "lat": 43.312375,
      "lon": -1.73733,
      "fame_score": 5,
      "name_es": "Biriatou y la línea Comet",
      "name_en": "Biriatou and the Comète Line",
      "categories": [
        "historic=memorial"
      ],
      "osm_type": "node",
      "osm_id": 12805967398
    },
    {
      "name": "Juan Sebastián Elkano Aingura",
      "lat": 43.319472,
      "lon": -3.015087,
      "fame_score": 5,
      "name_es": "Ancla conmemorativa del 500 aniversario de Juan Sebastián Elcano",
      "name_en": "Juan Sebastián Elkano 500th anniversary commemorative anchor",
      "categories": [
        "tourism=artwork"
      ],
      "year": "2025-02-25",
      "osm_type": "node",
      "osm_id": 13528874913
    },
    {
      "name": "Bretxako merkatalgunea",
      "lat": 43.323963,
      "lon": -1.983108,
      "fame_score": 5,
      "name_es": "Mercado de la Brecha",
      "name_en": "Brecha Market",
      "categories": [
        "building=yes"
      ],
      "osm_type": "way",
      "osm_id": 23905020
    },
    {
      "name": "Horno Alto N.º1 de Altos Hornos de Vizcaya",
      "lat": 43.31159,
      "lon": -3.000551,
      "fame_score": 5,
      "name_es": "Horno Alto N.º1 de Altos Hornos de Vizcaya",
      "categories": [
        "tourism=attraction"
      ],
      "wikipedia": "es:Horno Alto 1 de Altos Hornos de Vizcaya",
      "wikidata": "Q11682603",
      "osm_type": "way",
      "osm_id": 27506834
    },
    {
      "name": "Done Jurgi eliza / Iglesia de San Jorge",
      "lat": 43.329211,
      "lon": -3.032748,
      "fame_score": 5,
      "name_es": "Iglesia de San Jorge",
      "categories": [
        "amenity=place_of_worship",
        "building=church"
      ],
      "wikipedia": "eu:San Jurgi eliza (Santurtzi)",
      "wikidata": "Q24199469",
      "religion": "christian",
      "denomination": "roman_catholic",
      "osm_type": "way",
      "osm_id": 27537894
    },
    {
      "name": "Zubietako hipodromoa",
      "lat": 43.261657,
      "lon": -2.021647,
      "fame_score": 5,
      "name_es": "Hipódromo de Zubieta",
      "name_en": "Racetrack of Zubieta",
      "categories": [
        "leisure=sports_centre"
      ],
      "wikidata": "Q5898467",
      "address": "Arrapide pasealekua, 11, Donostia / San Sebastián",
      "osm_type": "way",
      "osm_id": 32553298
    },
    {
      "name": "Silken Amara Plaza hotela",
      "lat": 43.307777,
      "lon": -1.97846,
      "fame_score": 5,
      "name_es": "Hotel Silken Amara Plaza",
      "categories": [
        "tourism=hotel",
        "building=yes"
      ],
      "wikipedia": "eu:Amara Plaza hotela",
      "wikidata": "Q20492904",
      "address": "Pio XII plaza, 7, Donostia / San Sebastián",
      "osm_type": "way",
      "osm_id": 34201314
    },
    {
      "name": "Txuri Urdin Izotz Jauregia",
      "lat": 43.301975,
      "lon": -1.97136,
      "fame_score": 5,
      "name_es": "Palacio del hielo Txuri Urdin",
      "categories": [
        "building=yes",
        "leisure=sports_centre"
      ],
      "wikipedia": "eu:Txuri Urdin izotz jauregia",
      "wikidata": "Q20493073",
      "address": "Anoeta pasealekua, 24, Donostia / San Sebastián",
      "osm_type": "way",
      "osm_id": 38622811
    },
    {
      "name": "Atano III.a Frontoia",
      "lat": 43.300984,
      "lon": -1.975657,
      "fame_score": 5,
      "name_es": "Frontón Atano III",
      "categories": [
        "building=yes",
        "leisure=sports_centre"
      ],
      "wikipedia": "eu:Atano III.a pilotalekua",
      "wikidata": "Q3752222",
      "address": "Anoeta pasealekua, 6, Donostia / San Sebastián",
      "osm_type": "way",
      "osm_id": 38622827
    },
    {
      "name": "Junkalgo Amaren eliza",
      "lat": 43.340265,
      "lon": -1.786993,
      "fame_score": 5,
      "name_es": "Nuestra Señora del Juncal",
      "categories": [
        "historic=church",
        "amenity=place_of_worship",
        "building=church"
      ],
      "wikidata": "Q11682828",
      "religion": "christian",
      "denomination": "roman_catholic",
      "osm_type": "way",
      "osm_id": 38692327
    },
    {
      "name": "Lakuabizkarreko Osasun Zentroa",
      "lat": 42.862662,
      "lon": -2.694444,
      "fame_score": 5,
      "name_es": "Centro de Salud de Lakuabizkarra",
      "name_en": "Lakuabizkarra Health Centre",
      "categories": [
        "amenity=clinic",
        "building=yes"
      ],
      "wikidata": "Q64442824",
      "address": "Wellingtongo dukearen kalea, 27, Vitoria-Gasteiz",
      "osm_type": "way",
      "osm_id": 41624711
    },
    {
      "name": "San Antonio komentua",
      "lat": 42.845648,
      "lon": -2.673664,
      "fame_score": 5,
      "name_es": "Convento de San Antonio",
      "categories": [
        "tourism=attraction",
        "amenity=place_of_worship",
        "building=yes"
      ],
      "wikipedia": "es:Convento de San Antonio (Vitoria)",
      "wikidata": "Q5785690",
      "address": "Loma Jeneralaren plaza, 5A, Vitoria-Gasteiz",
      "religion": "christian",
      "denomination": "roman_catholic",
      "osm_type": "way",
      "osm_id": 41685925
    },
    {
      "name": "Salbatore Deuna parrokia",
      "lat": 43.085727,
      "lon": -2.148465,
      "fame_score": 5,
      "name_es": "Parroquia de San Salvador",
      "categories": [
        "historic=yes",
        "amenity=place_of_worship",
        "building=church"
      ],
      "wikipedia": "es:Iglesia de San Salvador (Legorreta)",
      "wikidata": "Q30003382",
      "address": "Korta eta Zapas enparantza, 4, Legorreta",
      "religion": "christian",
      "denomination": "roman_catholic",
      "osm_type": "way",
      "osm_id": 41706754
    },
    {
      "name": "San Migel eliza",
      "lat": 42.847375,
      "lon": -2.67285,
      "fame_score": 5,
      "name_es": "Iglesia de San Miguel",
      "categories": [
        "tourism=attraction",
        "amenity=place_of_worship",
        "building=church"
      ],
      "wikipedia": "es:Iglesia de San Miguel Arcángel (Vitoria)",
      "wikidata": "Q3755367",
      "religion": "christian",
      "denomination": "roman_catholic",
      "osm_type": "way",
      "osm_id": 41719168
    },
    {
      "name": "Goiuri jauregia",
      "lat": 42.847579,
      "lon": -2.672442,
      "fame_score": 5,
      "name_es": "Palacio de Villasuso",
      "categories": [
        "historic=castle",
        "tourism=attraction",
        "building=yes"
      ],
      "description": "Renacentista",
      "wikipedia": "es:Palacio de Villa Suso",
      "wikidata": "Q23914764",
      "osm_type": "way",
      "osm_id": 41719931
    },
    {
      "name": "Santa Maria",
      "lat": 43.294798,
      "lon": -2.353318,
      "fame_score": 5,
      "name_es": "Iglesia de Santa María",
      "categories": [
        "historic=church",
        "amenity=place_of_worship",
        "building=church"
      ],
      "wikipedia": "es:Iglesia de Santa María (Deva)",
      "wikidata": "Q5911670",
      "address": "Plaza Zaharra, 7, Deba",
      "religion": "christian",
      "denomination": "catholic",
      "osm_type": "way",
      "osm_id": 42177947
    },
    {
      "name": "Arretxinagako San Migel ermita",
      "lat": 43.271465,
      "lon": -2.495124,
      "fame_score": 5,
      "name_es": "Ermita de San Miguel de Arretxinaga",
      "categories": [
        "historic=yes",
        "amenity=place_of_worship",
        "building=chapel"
      ],
      "wikidata": "Q65562265",
      "religion": "christian",
      "denomination": "catholic",
      "osm_type": "way",
      "osm_id": 43022102
    },
    {
      "name": "Natur Zientzien museoa",
      "lat": 42.850237,
      "lon": -2.674564,
      "fame_score": 5,
      "name_es": "Museo de Ciencias Naturales",
      "categories": [
        "tourism=museum",
        "building=yes"
      ],
      "wikipedia": "es:Museo de Ciencias Naturales de Álava",
      "wikidata": "Q3330285",
      "osm_type": "way",
      "osm_id": 45783806
    },
    {
      "name": "Abaroa jauregia",
      "lat": 43.364653,
      "lon": -2.504919,
      "fame_score": 5,
      "name_es": "Palacio Abaroa",
      "categories": [
        "historic=manor",
        "building=yes"
      ],
      "wikipedia": "eu:Abaroa Jauregia",
      "wikidata": "Q12252723",
      "osm_type": "way",
      "osm_id": 46248728
    },
    {
      "name": "Antzorizko Santa Katalina",
      "lat": 43.376619,
      "lon": -2.509803,
      "fame_score": 5,
      "name_es": "Santa Catalina de Antzoriz",
      "categories": [
        "amenity=place_of_worship",
        "building=chapel"
      ],
      "wikipedia": "es:Ermita de Santa Catalina de Antzoriz",
      "wikidata": "Q54366733",
      "religion": "christian",
      "denomination": "catholic",
      "osm_type": "way",
      "osm_id": 46262006
    },
    {
      "name": "Larraitzko ermita",
      "lat": 43.036736,
      "lon": -2.098755,
      "fame_score": 5,
      "name_es": "Ermita de Larraitz",
      "categories": [
        "amenity=place_of_worship",
        "building=chapel"
      ],
      "wikidata": "Q20492280",
      "address": "Larraitz, 12, Abaltzisketa",
      "religion": "christian",
      "denomination": "roman_catholic",
      "osm_type": "way",
      "osm_id": 47908396
    },
    {
      "name": "Irugurutzetako mehategia",
      "lat": 43.317538,
      "lon": -1.772108,
      "fame_score": 5,
      "name_es": "Coto minero de Irugurutzeta",
      "categories": [
        "historic=works",
        "tourism=attraction"
      ],
      "osm_type": "way",
      "osm_id": 48777692
    },
    {
      "name": "Santa Kutz eliza",
      "lat": 43.094285,
      "lon": -2.011088,
      "fame_score": 5,
      "name_es": "Parroquia de Santa Cruz",
      "categories": [
        "historic=yes",
        "amenity=place_of_worship",
        "building=church"
      ],
      "wikipedia": "es:Iglesia de Santa Cruz (Oreja)",
      "wikidata": "Q124986341",
      "religion": "christian",
      "denomination": "roman_catholic",
      "osm_type": "way",
      "osm_id": 50470137
    },
    {
      "name": "Udaletxea",
      "lat": 43.294197,
      "lon": -2.354335,
      "fame_score": 5,
      "name_es": "Ayuntamiento de Deba",
      "categories": [
        "amenity=townhall",
        "building=yes"
      ],
      "wikipedia": "eu:Debako udaletxea",
      "wikidata": "Q12256117",
      "address": "Portu kalea, 1, Deba",
      "osm_type": "way",
      "osm_id": 51972216
    },
    {
      "name": "Ayuntamiento",
      "lat": 43.362444,
      "lon": -1.791502,
      "fame_score": 5,
      "name_es": "Ayuntamiento",
      "name_en": "Town hall",
      "categories": [
        "historic=yes",
        "amenity=townhall",
        "building=yes"
      ],
      "address": "Kale Nagusia, 20, Hondarribia",
      "osm_type": "way",
      "osm_id": 52021228
    },
    {
      "name": "San Mames",
      "lat": 43.264142,
      "lon": -2.949397,
      "fame_score": 5,
      "name_es": "San Mamés",
      "categories": [
        "leisure=stadium"
      ],
      "wikipedia": "es:Estadio de San Mamés",
      "wikidata": "Q182864",
      "architect": "César Azcárate",
      "osm_type": "way",
      "osm_id": 59171758
    },
    {
      "name": "Iglesia de San Severino",
      "lat": 43.1962,
      "lon": -3.192551,
      "fame_score": 5,
      "name_es": "Iglesia de San Severino",
      "categories": [
        "amenity=place_of_worship",
        "building=church"
      ],
      "wikipedia": "eu:San Severino eliza",
      "wikidata": "Q47290759",
      "address": "Balmaseda",
      "religion": "christian",
      "denomination": "roman_catholic",
      "osm_type": "way",
      "osm_id": 62067066
    },
    {
      "name": "Arte Ederren museoa",
      "lat": 42.841726,
      "lon": -2.679772,
      "fame_score": 5,
      "name_es": "Museo de Bellas Artes",
      "categories": [
        "tourism=museum",
        "building=yes"
      ],
      "wikipedia": "es:Museo de Bellas Artes de Álava",
      "wikidata": "Q10940906",
      "address": "Frai Francisco Vitoria ibilbidea, 8, Vitoria-Gasteiz",
      "osm_type": "way",
      "osm_id": 82077865
    },
    {
      "name": "San Millan Eliza",
      "lat": 42.986757,
      "lon": -2.568197,
      "fame_score": 5,
      "name_es": "Iglesia de San Millán",
      "categories": [
        "amenity=place_of_worship",
        "building=church"
      ],
      "wikidata": "Q65920548",
      "address": "Santiago kalea, 1, Leintz-gatzaga",
      "religion": "christian",
      "denomination": "roman_catholic",
      "osm_type": "way",
      "osm_id": 93429871
    },
    {
      "name": "Leintz Gatzagako udaletxea",
      "lat": 42.986915,
      "lon": -2.567901,
      "fame_score": 5,
      "name_es": "Ayuntamiento de Salinas de Léniz",
      "categories": [
        "historic=yes",
        "amenity=townhall",
        "building=yes"
      ],
      "wikipedia": "eu:Leintz Gatzagako udaletxea",
      "wikidata": "Q59145626",
      "address": "San Migel plaza, 2, Leintz-gatzaga",
      "osm_type": "way",
      "osm_id": 93429883
    },
    {
      "name": "Garro jauregia",
      "lat": 42.986666,
      "lon": -2.568707,
      "fame_score": 5,
      "name_es": "Palacio Garro",
      "categories": [
        "historic=building",
        "building=yes"
      ],
      "wikidata": "Q65920516",
      "address": "Santiago kalea, 2, Leintz-gatzaga",
      "osm_type": "way",
      "osm_id": 93543674
    },
    {
      "name": "Santa Engrazia baseliza",
      "lat": 43.220837,
      "lon": -2.208472,
      "fame_score": 5,
      "name_es": "Santa Engracia, ermita",
      "categories": [
        "amenity=place_of_worship",
        "building=chapel"
      ],
      "wikipedia": "eu:Santa Engrazia baseliza (Aizarna)",
      "wikidata": "Q20872495",
      "address": "36, Zestoa",
      "religion": "christian",
      "denomination": "roman_catholic",
      "osm_type": "way",
      "osm_id": 106245345
    },
    {
      "name": "Euskal Herriko Meatzaritzaren Museoa",
      "lat": 43.311495,
      "lon": -3.070165,
      "fame_score": 5,
      "name_es": "Museo de la Minería del País Vasco",
      "name_en": "Basque Country's Mining Museum",
      "categories": [
        "tourism=museum",
        "building=yes"
      ],
      "address": "Barrio Campodiego auzoa, Abanto y Ciérvana-Abanto Zierbena",
      "osm_type": "way",
      "osm_id": 107110587
    },
    {
      "name": "San Joan Bataiatzailea / San Juan Bautista",
      "lat": 43.328138,
      "lon": -2.986232,
      "fame_score": 5,
      "name_es": "San Juan Bautista",
      "categories": [
        "historic=church",
        "amenity=place_of_worship",
        "building=church"
      ],
      "wikipedia": "es:Iglesia de San Juan Bautista (Lejona)",
      "wikidata": "Q124986262",
      "religion": "christian",
      "denomination": "catholic",
      "osm_type": "way",
      "osm_id": 112311888
    },
    {
      "name": "Torre BEC",
      "lat": 43.290164,
      "lon": -2.989141,
      "fame_score": 5,
      "name_es": "Torre BEC",
      "name_en": "BEC tower",
      "categories": [
        "building=yes",
        "man_made=tower"
      ],
      "wikidata": "Q12254614",
      "osm_type": "way",
      "osm_id": 119304085
    },
    {
      "name": "Ramón de la Sotaren etxea",
      "lat": 43.334839,
      "lon": -3.008116,
      "fame_score": 5,
      "name_es": "Casa de Ramón de la Sota",
      "categories": [
        "historic=manor",
        "building=house"
      ],
      "wikipedia": "eu:Ramón de la Sotaren etxea",
      "wikidata": "Q65559952",
      "address": "Zugatzarte etorbidea, 56",
      "osm_type": "way",
      "osm_id": 150056031
    },
    {
      "name": "Castillo de Arteaga",
      "lat": 43.351893,
      "lon": -2.654254,
      "fame_score": 5,
      "name_es": "Castillo de Arteaga",
      "categories": [
        "historic=castle",
        "tourism=hotel"
      ],
      "wikipedia": "es:Castillo de la Emperatriz Eugenia de Montijo",
      "wikidata": "Q2971129",
      "osm_type": "way",
      "osm_id": 154244450
    },
    {
      "name": "Irun Ficoba",
      "lat": 43.34944,
      "lon": -1.786193,
      "fame_score": 5,
      "name_es": "Irún Ficoba",
      "categories": [
        "building=civic"
      ],
      "wikipedia": "eu:Ficobako geltokia",
      "wikidata": "Q12259772",
      "address": "Iparralde hiribidea, 63, Irun",
      "osm_type": "way",
      "osm_id": 169216750
    },
    {
      "name": "Lasesarre futbol zelaia",
      "lat": 43.303007,
      "lon": -2.986583,
      "fame_score": 5,
      "name_es": "Estadio de Lasesarre",
      "categories": [
        "leisure=stadium"
      ],
      "wikipedia": "es:Estadio de Lasesarre",
      "wikidata": "Q2697083",
      "architect": "Eduardo Arroyo Muñoz",
      "year": "2003-09-30",
      "osm_type": "way",
      "osm_id": 173444024
    },
    {
      "name": "John jauregia (La Bolsa eraikina)",
      "lat": 43.257631,
      "lon": -2.925273,
      "fame_score": 5,
      "name_es": "Palacio de John (La Bolsa)",
      "categories": [
        "historic=manor",
        "building=yes"
      ],
      "wikipedia": "eu:Yohn jauregia",
      "wikidata": "Q23899597",
      "year": "1727",
      "osm_type": "way",
      "osm_id": 173831537
    },
    {
      "name": "Ama Xantalen iturria",
      "lat": 43.336123,
      "lon": -1.784588,
      "fame_score": 5,
      "name_es": "Fuente Ama Xantal",
      "categories": [
        "historic=yes",
        "tourism=attraction",
        "building=yes"
      ],
      "osm_type": "way",
      "osm_id": 180287247
    },
    {
      "name": "Albergue Gernika",
      "lat": 43.319482,
      "lon": -2.672727,
      "fame_score": 5,
      "name_es": "Albergue Gernika",
      "name_en": "Gernika's Hostel",
      "categories": [
        "tourism=hostel",
        "building=yes"
      ],
      "osm_type": "way",
      "osm_id": 195911930
    },
    {
      "name": "El Pobaleko burdinola",
      "lat": 43.297088,
      "lon": -3.125793,
      "fame_score": 5,
      "name_es": "Ferrería de El Pobal",
      "categories": [
        "historic=ruins",
        "tourism=museum",
        "building=yes"
      ],
      "wikipedia": "eu:El Pobaleko burdinola",
      "wikidata": "Q12256645",
      "address": "Barrio de El Pobal, Muskiz",
      "osm_type": "way",
      "osm_id": 205545412
    },
    {
      "name": "Azucarera Alavesa",
      "lat": 42.856672,
      "lon": -2.718871,
      "fame_score": 5,
      "name_es": "Fábrica Azucarera Alavesa",
      "categories": [
        "building=yes"
      ],
      "wikipedia": "es:Fábrica Azucarera Alavesa",
      "wikidata": "Q8963162",
      "architect": "Fausto Íñiguez de Betolaza",
      "address": "Oto hiribidea, 75, Vitoria-Gasteiz",
      "osm_type": "way",
      "osm_id": 213416391
    },
    {
      "name": "Napoleonen bolborategia",
      "lat": 43.324827,
      "lon": -1.990113,
      "fame_score": 5,
      "name_es": "Polvorín de Napoleón",
      "name_en": "Gunpowder depot of Napoleon",
      "categories": [
        "building=yes"
      ],
      "osm_type": "way",
      "osm_id": 229940070
    },
    {
      "name": "Bolborategia",
      "lat": 43.32361,
      "lon": -1.992224,
      "fame_score": 5,
      "name_es": "Polvorín",
      "name_en": "Gunpowder depot",
      "categories": [
        "building=yes"
      ],
      "osm_type": "way",
      "osm_id": 230520366
    },
    {
      "name": "Bolborategia",
      "lat": 43.325289,
      "lon": -1.987565,
      "fame_score": 5,
      "name_es": "Polvorín",
      "name_en": "Gunpowder depot",
      "categories": [
        "building=yes"
      ],
      "osm_type": "way",
      "osm_id": 230521399
    },
    {
      "name": "Tiro-xedeak gordetzeko Etxea",
      "lat": 43.325723,
      "lon": -1.987177,
      "fame_score": 5,
      "name_es": "Casa guardablancos",
      "name_en": "Target storage house",
      "categories": [
        "building=yes"
      ],
      "address": "Donostia / San Sebastián",
      "osm_type": "way",
      "osm_id": 233293172
    },
    {
      "name": "Indianokua jauregia",
      "lat": 43.30418,
      "lon": -2.203865,
      "fame_score": 5,
      "name_es": "Palacio Indianokua",
      "categories": [
        "tourism=attraction",
        "building=yes"
      ],
      "wikipedia": "eu:Indianokua jauregia",
      "wikidata": "Q20757578",
      "osm_type": "way",
      "osm_id": 236213911
    },
    {
      "name": "Otxoa Ibañez de Olano dorretxea",
      "lat": 43.304264,
      "lon": -2.203402,
      "fame_score": 5,
      "name_es": "Casa Torre de Ochoa Ibáñez de Olano",
      "categories": [
        "tourism=attraction",
        "building=yes"
      ],
      "wikipedia": "eu:Otxoa Ibañez de Olano dorretxea",
      "wikidata": "Q20760434",
      "osm_type": "way",
      "osm_id": 236213913
    },
    {
      "name": "San Roke kaleko etxe gotikoak",
      "lat": 43.304089,
      "lon": -2.204458,
      "fame_score": 5,
      "name_es": "Casas Góticas Calle San Roke",
      "categories": [
        "tourism=attraction",
        "building=yes"
      ],
      "wikipedia": "eu:San Roke kaleko etxe gotikoak",
      "wikidata": "Q25473865",
      "osm_type": "way",
      "osm_id": 236213915
    },
    {
      "name": "Udetxea",
      "lat": 43.314945,
      "lon": -2.681345,
      "fame_score": 5,
      "name_es": "Palacio Udetxea",
      "name_en": "Udetxea Palace",
      "categories": [
        "historic=manor",
        "building=yes"
      ],
      "osm_type": "way",
      "osm_id": 289996252
    },
    {
      "name": "Mikel Deuna eliza",
      "lat": 43.248203,
      "lon": -1.990585,
      "fame_score": 5,
      "name_es": "Iglesia Parroquial de San Miguel",
      "categories": [
        "historic=yes",
        "amenity=place_of_worship",
        "building=church"
      ],
      "wikipedia": "es:Iglesia de San Miguel (Urnieta)",
      "wikidata": "Q65683755",
      "address": "Maximo Yurramendi kalea, Urnieta",
      "religion": "christian",
      "denomination": "catholic",
      "osm_type": "way",
      "osm_id": 302950960
    },
    {
      "name": "Done Martie",
      "lat": 43.315379,
      "lon": -2.748165,
      "fame_score": 5,
      "name_es": "San Martín",
      "categories": [
        "tourism=attraction",
        "amenity=place_of_worship",
        "building=church"
      ],
      "wikipedia": "es:Iglesia de San Martín (Morga)",
      "wikidata": "Q123741057",
      "religion": "christian",
      "denomination": "roman_catholic",
      "osm_type": "way",
      "osm_id": 340941980
    },
    {
      "name": "Ama jasokundearen eliza",
      "lat": 43.008963,
      "lon": -2.254068,
      "fame_score": 5,
      "name_es": "Iglesia Nuestra Señora de la Asunción",
      "categories": [
        "historic=yes",
        "amenity=place_of_worship",
        "building=church"
      ],
      "wikipedia": "es:Iglesia de Santa María de la Asunción (Segura)",
      "wikidata": "Q12260206",
      "address": "Kale Nagusia, 46, Segura",
      "religion": "christian",
      "denomination": "roman_catholic",
      "osm_type": "way",
      "osm_id": 370778625
    },
    {
      "name": "Jasokundeko Ama Birjina eliza",
      "lat": 43.099463,
      "lon": -2.083265,
      "fame_score": 5,
      "name_es": "Iglesia de Nuestra Señora de la Asunción",
      "categories": [
        "historic=yes",
        "amenity=place_of_worship",
        "building=church"
      ],
      "wikipedia": "es:Iglesia de la Asunción de Nuestra Señora (Alzo)",
      "wikidata": "Q126708307",
      "address": "Altzo Muino, 114, Altzo",
      "religion": "christian",
      "denomination": "roman_catholic",
      "osm_type": "way",
      "osm_id": 372465827
    },
    {
      "name": "Mendoza dorretxea",
      "lat": 42.859928,
      "lon": -2.774025,
      "fame_score": 5,
      "name_es": "Torre de Mendoza",
      "categories": [
        "historic=castle",
        "tourism=attraction",
        "building=yes"
      ],
      "wikipedia": "es:Torre de Mendoza",
      "wikidata": "Q7829779",
      "address": "38, Mendoza",
      "osm_type": "way",
      "osm_id": 383256807
    },
    {
      "name": "Uraren Museoa",
      "lat": 42.766353,
      "lon": -3.090873,
      "fame_score": 5,
      "name_es": "Museo del Agua",
      "categories": [
        "tourism=museum",
        "building=yes"
      ],
      "wikipedia": "eu:Sobrongo Uraren Museoa",
      "wikidata": "Q9047090",
      "osm_type": "way",
      "osm_id": 389403207
    },
    {
      "name": "Ermita de Urrialdo",
      "lat": 42.88803,
      "lon": -2.776914,
      "fame_score": 5,
      "name_es": "Ermita de Urrialdo",
      "categories": [
        "historic=ruins",
        "building=chapel"
      ],
      "wikipedia": "es:Urrialdo",
      "wikidata": "Q53262340",
      "religion": "christian",
      "denomination": "catholic",
      "osm_type": "way",
      "osm_id": 405898985
    },
    {
      "name": "Areatzako zubia",
      "lat": 43.260171,
      "lon": -2.924986,
      "fame_score": 5,
      "name_es": "Puente del Arenal",
      "categories": [
        "man_made=bridge"
      ],
      "wikipedia": "eu:Areatzako zubia",
      "wikidata": "Q4788941",
      "osm_type": "way",
      "osm_id": 413679792
    },
    {
      "name": "Erribera zubia",
      "lat": 43.256227,
      "lon": -2.92584,
      "fame_score": 5,
      "name_es": "Puente La Ribera",
      "categories": [
        "man_made=bridge"
      ],
      "wikipedia": "eu:Erriberako zubia",
      "wikidata": "Q9064468",
      "osm_type": "way",
      "osm_id": 419919862
    },
    {
      "name": "Portillako gaztelua",
      "lat": 42.670404,
      "lon": -2.833804,
      "fame_score": 5,
      "name_es": "Castillo de Portilla",
      "categories": [
        "historic=castle",
        "building=ruins"
      ],
      "wikipedia": "es:Castillo de Portilla",
      "wikidata": "Q2888199",
      "osm_type": "way",
      "osm_id": 475846115
    },
    {
      "name": "Anunzibaiko burdinola",
      "lat": 43.140397,
      "lon": -2.938065,
      "fame_score": 5,
      "name_es": "Ferrería hidraúlica de Anuncibai",
      "name_en": "Anunzibai hydraulic forge",
      "categories": [
        "historic=ruins",
        "building=yes"
      ],
      "osm_type": "way",
      "osm_id": 488512074
    },
    {
      "name": "Lamuza jauregia",
      "lat": 43.144676,
      "lon": -2.964819,
      "fame_score": 5,
      "name_es": "Palacio de Lamuza",
      "categories": [
        "historic=castle",
        "tourism=attraction",
        "building=palace"
      ],
      "wikipedia": "es:Palacio de Lamuza",
      "wikidata": "Q21401839",
      "address": "Lamuza kalea, 13, Laudio / Llodio",
      "osm_type": "way",
      "osm_id": 488521369
    },
    {
      "name": "Tourseko Martin Donearen Eliza",
      "lat": 42.848263,
      "lon": -2.429051,
      "fame_score": 5,
      "name_es": "Iglesia de San Martín de Tours",
      "categories": [
        "amenity=place_of_worship",
        "building=yes"
      ],
      "wikidata": "Q9007187",
      "address": "15, Gazeo",
      "religion": "christian",
      "denomination": "catholic",
      "osm_type": "way",
      "osm_id": 488526084
    },
    {
      "name": "Jaiokundearen eliza",
      "lat": 42.833484,
      "lon": -2.537946,
      "fame_score": 5,
      "name_es": "Iglesia de la Natividad",
      "categories": [
        "amenity=place_of_worship",
        "building=yes"
      ],
      "wikipedia": "es:Iglesia de la Natividad de Nuestra Señora (Añua)",
      "wikidata": "Q5912496",
      "address": "Aska kalea, 9, Añua",
      "religion": "christian",
      "denomination": "catholic",
      "osm_type": "way",
      "osm_id": 488920752
    },
    {
      "name": "Lazarragatarren jauregia",
      "lat": 42.885844,
      "lon": -2.346996,
      "fame_score": 5,
      "name_es": "Palacio Lazarraga",
      "categories": [
        "tourism=museum",
        "building=yes"
      ],
      "wikipedia": "eu:Lazarragatarren jauregia",
      "wikidata": "Q6505882",
      "address": "Iturribide kalea, 9, Zalduondo",
      "osm_type": "way",
      "osm_id": 505090892
    },
    {
      "name": "Euskaltzaindia",
      "lat": 43.259464,
      "lon": -2.922694,
      "fame_score": 5,
      "name_es": "Real Academia de Lengua Vasca",
      "categories": [
        "building=government"
      ],
      "wikipedia": "eu:Euskaltzaindiaren egoitza",
      "wikidata": "Q62823627",
      "osm_type": "way",
      "osm_id": 522814005
    },
    {
      "name": "Labirintoa",
      "lat": 43.374171,
      "lon": -2.69722,
      "fame_score": 5,
      "name_es": "Laberinto",
      "name_en": "Maze",
      "categories": [
        "leisure=park"
      ],
      "osm_type": "way",
      "osm_id": 533258769
    },
    {
      "name": "Pont International / Nazioarteko zubia",
      "lat": 43.344196,
      "lon": -1.761193,
      "fame_score": 5,
      "name_es": "Puente Internacional",
      "categories": [
        "man_made=bridge"
      ],
      "wikidata": "Q12264749",
      "osm_type": "way",
      "osm_id": 570813165
    },
    {
      "name": "Grandes Molinos Vascos",
      "lat": 43.28069,
      "lon": -2.970413,
      "fame_score": 5,
      "categories": [
        "historic=ruins",
        "tourism=attraction",
        "building=industrial",
        "man_made=works"
      ],
      "wikipedia": "es:Edificio de Molinos Vascos",
      "wikidata": "Q8772058",
      "year": "1924",
      "osm_type": "way",
      "osm_id": 589896685
    },
    {
      "name": "Agurtza Arrantzaren Interpretazio Museoa",
      "lat": 43.326905,
      "lon": -3.023761,
      "fame_score": 5,
      "name_es": "Museo de Interpretación de la Pesca Agurtza",
      "name_en": "Agurtza Museum of Fishing",
      "categories": [
        "tourism=museum",
        "building=yes"
      ],
      "osm_type": "way",
      "osm_id": 607101080
    },
    {
      "name": "San Salbador eliza",
      "lat": 43.105997,
      "lon": -2.091746,
      "fame_score": 5,
      "name_es": "Iglesia de San Salvador",
      "categories": [
        "amenity=place_of_worship",
        "building=church"
      ],
      "wikipedia": "es:Iglesia de San Salvador (Alzo)",
      "wikidata": "Q123359754",
      "address": "Altzo-Azpi sakabanatua, 112, Altzo",
      "religion": "christian",
      "denomination": "roman_catholic",
      "osm_type": "way",
      "osm_id": 625787355
    },
    {
      "name": "El Carmen eliza",
      "lat": 42.842412,
      "lon": -2.675521,
      "fame_score": 5,
      "name_es": "Iglesia del Carmen",
      "categories": [
        "amenity=place_of_worship",
        "building=church"
      ],
      "wikipedia": "es:Iglesia del Carmen (Vitoria)",
      "wikidata": "Q5912727",
      "architect": "Fausto Íñiguez de Betolaza",
      "religion": "christian",
      "denomination": "catholic",
      "osm_type": "way",
      "osm_id": 627894423
    },
    {
      "name": "Lexartza jauregia",
      "lat": 43.324264,
      "lon": -3.02176,
      "fame_score": 5,
      "name_es": "Palacio Lejarza",
      "categories": [
        "building=university"
      ],
      "wikipedia": "eu:Lexartza jauregia",
      "wikidata": "Q11697353",
      "address": "Parque Ignacio Ellacuria, 2",
      "osm_type": "way",
      "osm_id": 632215319
    },
    {
      "name": "Ermita de la Purísima Concepción",
      "lat": 42.750139,
      "lon": -2.679742,
      "fame_score": 5,
      "name_es": "Ermita de la Purísima Concepción",
      "categories": [
        "amenity=place_of_worship",
        "building=chapel"
      ],
      "wikipedia": "es:Ermita de la Concepción (San Vicentejo)",
      "wikidata": "Q5836468",
      "year": "1162",
      "religion": "christian",
      "denomination": "roman_catholic",
      "osm_type": "way",
      "osm_id": 643565498
    },
    {
      "name": "Carrusel",
      "lat": 43.320976,
      "lon": -2.009644,
      "fame_score": 5,
      "name_es": "Carrusel",
      "name_en": "Carousel",
      "categories": [
        "building=yes"
      ],
      "osm_type": "way",
      "osm_id": 779555094
    },
    {
      "name": "Humanitate eta Hezkuntza Fakultatea",
      "lat": 43.015252,
      "lon": -2.528694,
      "fame_score": 5,
      "name_es": "Facultad de Humanidades y Ciencias de la Educación",
      "name_en": "Faculty of humanities and education sciences",
      "categories": [
        "building=university"
      ],
      "wikidata": "Q12259268",
      "osm_type": "way",
      "osm_id": 1014043734
    },
    {
      "name": "Mesedeetako zubia",
      "lat": 43.257566,
      "lon": -2.926923,
      "fame_score": 5,
      "name_es": "Puente de La Merced",
      "categories": [
        "man_made=bridge"
      ],
      "wikipedia": "eu:Mesedeetako zubia",
      "wikidata": "Q9064466",
      "osm_type": "way",
      "osm_id": 1016806717
    },
    {
      "name": "Salbeko zubia",
      "lat": 43.269268,
      "lon": -2.931861,
      "fame_score": 5,
      "name_es": "Puente de La Salve",
      "categories": [
        "man_made=bridge"
      ],
      "wikipedia": "eu:Salbeko zubia",
      "wikidata": "Q6465160",
      "osm_type": "way",
      "osm_id": 1017092845
    },
    {
      "name": "Zumaiako udaletxea",
      "lat": 43.296952,
      "lon": -2.258419,
      "fame_score": 5,
      "name_es": "Ayuntamiento de Zumaia",
      "categories": [
        "amenity=townhall",
        "building=yes"
      ],
      "wikipedia": "eu:Zumaiako udaletxea",
      "wikidata": "Q25474195",
      "address": "Foruen enparantza, 1, Zumaia",
      "osm_type": "way",
      "osm_id": 1364779415
    },
    {
      "name": "Txoritokietako gotorlekua",
      "lat": 43.290872,
      "lon": -1.921735,
      "fame_score": 5,
      "name_es": "Fuerte de Txoritokieta",
      "name_en": "Fort Txoritokieta",
      "categories": [
        "historic=fort",
        "tourism=attraction",
        "building=yes"
      ],
      "address": "52, Errenteria",
      "osm_type": "way",
      "osm_id": 1493504096
    },
    {
      "name": "San Migel parrokia",
      "osm_type": "relation",
      "osm_id": 2896680,
      "categories": [
        "amenity=place_of_worship",
        "building=church"
      ],
      "fame_score": 5,
      "wikipedia": "eu:San Migel eliza (Oñati)",
      "wikidata": "Q11682858",
      "needs_geocoding": true
    },
    {
      "name": "Gogartetxea",
      "osm_type": "relation",
      "osm_id": 5375422,
      "categories": [
        "building=yes"
      ],
      "fame_score": 5,
      "needs_geocoding": true
    },
    {
      "name": "Karmeliten konbentua",
      "osm_type": "relation",
      "osm_id": 5955221,
      "categories": [
        "amenity=place_of_worship",
        "building=church"
      ],
      "fame_score": 5,
      "wikidata": "Q65684008",
      "needs_geocoding": true
    },
    {
      "name": "San Enrique gotorlekua",
      "osm_type": "relation",
      "osm_id": 6096109,
      "categories": [
        "historic=fort",
        "building=yes"
      ],
      "fame_score": 5,
      "needs_geocoding": true
    },
    {
      "name": "John Hay Lord-aren gotorlekua",
      "osm_type": "relation",
      "osm_id": 6096110,
      "categories": [
        "historic=fort",
        "building=yes"
      ],
      "fame_score": 5,
      "needs_geocoding": true
    },
    {
      "name": "Santa Barbara dorrea (Jaizkibel IV)",
      "osm_type": "relation",
      "osm_id": 6096111,
      "categories": [
        "historic=yes",
        "building=yes"
      ],
      "fame_score": 5,
      "needs_geocoding": true
    },
    {
      "name": "Jaizkibel I dorrea",
      "osm_type": "relation",
      "osm_id": 6096112,
      "categories": [
        "historic=yes",
        "building=yes"
      ],
      "fame_score": 5,
      "needs_geocoding": true
    },
    {
      "name": "Xangaxi dorrea (Jaizkibel III)",
      "osm_type": "relation",
      "osm_id": 6096114,
      "categories": [
        "historic=yes",
        "building=yes"
      ],
      "fame_score": 5,
      "needs_geocoding": true
    },
    {
      "name": "Sorginetxe trikuharria",
      "lat": 42.82955,
      "lon": -2.378238,
      "fame_score": 4,
      "name_es": "Dolmen de Sorginetxe",
      "categories": [
        "historic=archaeological_site",
        "tourism=attraction"
      ],
      "wikidata": "Q3491189",
      "osm_type": "node",
      "osm_id": 101331675
    },
    {
      "name": "Gernikako Arbola",
      "lat": 43.31336,
      "lon": -2.680011,
      "fame_score": 4,
      "name_es": "Árbol de Gernika",
      "categories": [
        "historic=monument"
      ],
      "wikipedia": "eu:Gernikako Arbola",
      "wikidata": "Q919957",
      "osm_type": "node",
      "osm_id": 276154480
    },
    {
      "name": "Igeldoko itsasargia",
      "lat": 43.322676,
      "lon": -2.010312,
      "fame_score": 4,
      "name_es": "Faro de Igueldo",
      "categories": [
        "tourism=attraction"
      ],
      "wikidata": "Q973815",
      "osm_type": "node",
      "osm_id": 361064995
    },
    {
      "name": "Dolmen San Martín",
      "lat": 42.56186,
      "lon": -2.594191,
      "fame_score": 4,
      "name_es": "Dolmen San Martín",
      "categories": [
        "historic=archaeological_site"
      ],
      "description": "Monumento Funerario Prehistórico",
      "wikidata": "Q50689185",
      "osm_type": "node",
      "osm_id": 427123643
    },
    {
      "name": "Matxitxako",
      "lat": 43.454243,
      "lon": -2.752867,
      "fame_score": 4,
      "name_es": "Machichaco",
      "categories": [
        "man_made=lighthouse"
      ],
      "year": "1909",
      "osm_type": "node",
      "osm_id": 523936816
    },
    {
      "name": "Maman",
      "lat": 43.26916,
      "lon": -2.932953,
      "fame_score": 4,
      "name_es": "Mamá",
      "categories": [
        "tourism=artwork"
      ],
      "osm_type": "node",
      "osm_id": 558723293
    },
    {
      "name": "Dolmen Arraztarangaña",
      "lat": 42.993671,
      "lon": -2.109056,
      "fame_score": 4,
      "name_es": "Dolmen Arraztarangaña",
      "categories": [
        "historic=archaeological_site"
      ],
      "osm_type": "node",
      "osm_id": 564644632
    },
    {
      "name": "Salto del Nervión",
      "lat": 42.939739,
      "lon": -2.980999,
      "fame_score": 4,
      "name_es": "Salto del Nervión",
      "categories": [
        "tourism=viewpoint"
      ],
      "osm_type": "node",
      "osm_id": 626586056
    },
    {
      "name": "Cromlech Munerre",
      "lat": 43.247864,
      "lon": -1.823896,
      "fame_score": 4,
      "name_es": "Cromlech Munerre",
      "categories": [
        "historic=archaeological_site"
      ],
      "osm_type": "node",
      "osm_id": 656516111
    },
    {
      "name": "Cromlech Oianleku Norte",
      "lat": 43.254097,
      "lon": -1.82666,
      "fame_score": 4,
      "name_es": "Cromlech Oianleku Norte",
      "categories": [
        "historic=archaeological_site"
      ],
      "osm_type": "node",
      "osm_id": 656517473
    },
    {
      "name": "Ekain",
      "lat": 43.236133,
      "lon": -2.275649,
      "fame_score": 4,
      "categories": [
        "historic=archaeological_site"
      ],
      "wikipedia": "eu:Ekain (leizea)",
      "wikidata": "Q1414019",
      "osm_type": "node",
      "osm_id": 662563603
    },
    {
      "name": "Cascada de Peñaladros",
      "lat": 43.059179,
      "lon": -3.149046,
      "fame_score": 4,
      "categories": [
        "tourism=attraction"
      ],
      "wikipedia": "eu:Peñaladros-eko ur-jauzia",
      "wikidata": "Q63313389",
      "osm_type": "node",
      "osm_id": 764707362
    },
    {
      "name": "Loiolako San Inazioren estatua",
      "lat": 43.198494,
      "lon": -2.284559,
      "fame_score": 4,
      "name_es": "Estatua de San Ignacio de Loyola",
      "categories": [
        "historic=monument"
      ],
      "year": "1956-07-15",
      "osm_type": "node",
      "osm_id": 1007969382
    },
    {
      "name": "Cromlech Oianleku Sur",
      "lat": 43.251593,
      "lon": -1.824985,
      "fame_score": 4,
      "name_es": "Cromlech Oianleku Sur",
      "categories": [
        "historic=archaeological_site"
      ],
      "osm_type": "node",
      "osm_id": 1080541858
    },
    {
      "name": "Cromlech Basate",
      "lat": 43.254722,
      "lon": -1.827454,
      "fame_score": 4,
      "name_es": "Cromlech Basate",
      "categories": [
        "historic=archaeological_site"
      ],
      "osm_type": "node",
      "osm_id": 1080541860
    },
    {
      "name": "Cromlech Kauso II",
      "lat": 43.243997,
      "lon": -1.830439,
      "fame_score": 4,
      "name_es": "Cromlech Kauso II",
      "categories": [
        "historic=archaeological_site"
      ],
      "osm_type": "node",
      "osm_id": 1080549756
    },
    {
      "name": "Cromlech Kauso I",
      "lat": 43.243533,
      "lon": -1.832144,
      "fame_score": 4,
      "name_es": "Cromlech Kauso I",
      "categories": [
        "historic=archaeological_site"
      ],
      "osm_type": "node",
      "osm_id": 1080549964
    },
    {
      "name": "Arribirilleta",
      "lat": 43.176631,
      "lon": -2.370346,
      "fame_score": 4,
      "categories": [
        "historic=archaeological_site"
      ],
      "wikipedia": "eu:Arribiribilleta",
      "wikidata": "Q20492546",
      "osm_type": "node",
      "osm_id": 1796751900
    },
    {
      "name": "San Telmo Museoa",
      "lat": 43.325067,
      "lon": -1.98508,
      "fame_score": 4,
      "name_es": "Museo de San Telmo",
      "categories": [
        "tourism=museum"
      ],
      "address": "Zuloaga plaza, 1",
      "osm_type": "node",
      "osm_id": 1841513466
    },
    {
      "name": "Arditurriko mehatzeak",
      "lat": 43.284068,
      "lon": -1.80451,
      "fame_score": 4,
      "name_es": "Minas de Arditurri",
      "categories": [
        "tourism=attraction"
      ],
      "osm_type": "node",
      "osm_id": 2187508453
    },
    {
      "name": "Dolmen Oindolar I",
      "lat": 43.18957,
      "lon": -2.016926,
      "fame_score": 4,
      "name_es": "Dolmen Oindolar I",
      "categories": [
        "historic=archaeological_site"
      ],
      "osm_type": "node",
      "osm_id": 2192129436
    },
    {
      "name": "Dolmen Oindolar II",
      "lat": 43.189867,
      "lon": -2.017315,
      "fame_score": 4,
      "name_es": "Dolmen Oindolar II",
      "categories": [
        "historic=archaeological_site"
      ],
      "osm_type": "node",
      "osm_id": 2192129437
    },
    {
      "name": "Dolmen Oindolar III",
      "lat": 43.189392,
      "lon": -2.016787,
      "fame_score": 4,
      "name_es": "Dolmen Oindolar III",
      "categories": [
        "historic=archaeological_site"
      ],
      "osm_type": "node",
      "osm_id": 2192129438
    },
    {
      "name": "Dolmen Oindolar IV",
      "lat": 43.190721,
      "lon": -2.014916,
      "fame_score": 4,
      "name_es": "Dolmen Oindolar IV",
      "categories": [
        "historic=archaeological_site"
      ],
      "osm_type": "node",
      "osm_id": 2192129443
    },
    {
      "name": "Túmulo Itxupeaka",
      "lat": 43.175785,
      "lon": -2.019219,
      "fame_score": 4,
      "name_es": "Túmulo Itxupeaka",
      "categories": [
        "historic=archaeological_site"
      ],
      "osm_type": "node",
      "osm_id": 2217231948
    },
    {
      "name": "Museo de la Paz de Gernika",
      "lat": 43.315059,
      "lon": -2.678387,
      "fame_score": 4,
      "categories": [
        "tourism=museum"
      ],
      "wikipedia": "eu:Bakearen museoa",
      "wikidata": "Q5482950",
      "osm_type": "node",
      "osm_id": 2278920655
    },
    {
      "name": "Dolmen Pozontarriko Lepoa",
      "lat": 43.227977,
      "lon": -1.958951,
      "fame_score": 4,
      "name_es": "Dolmen Pozontarriko Lepoa",
      "categories": [
        "historic=archaeological_site"
      ],
      "osm_type": "node",
      "osm_id": 2282245624
    },
    {
      "name": "Arleorko Zabala harrespila",
      "lat": 43.21944,
      "lon": -1.963834,
      "fame_score": 4,
      "name_es": "Cromlech Arleorko Zabala",
      "categories": [
        "historic=archaeological_site"
      ],
      "osm_type": "node",
      "osm_id": 2283310309
    },
    {
      "name": "Elurzulo tumuludun harrespila",
      "lat": 43.211594,
      "lon": -1.958712,
      "fame_score": 4,
      "name_es": "Cromlech tumular Elurzulo",
      "categories": [
        "historic=archaeological_site"
      ],
      "osm_type": "node",
      "osm_id": 2283310310
    },
    {
      "name": "Cromlech Abade Kurutz",
      "lat": 43.149292,
      "lon": -1.922308,
      "fame_score": 4,
      "name_es": "Cromlech Abade Kurutz",
      "categories": [
        "historic=archaeological_site"
      ],
      "osm_type": "node",
      "osm_id": 2286594664
    },
    {
      "name": "Etzelako Arritxuriak harrespila",
      "lat": 43.170936,
      "lon": -1.923137,
      "fame_score": 4,
      "name_es": "Cromlech Etzelako Arritxuriak",
      "categories": [
        "historic=archaeological_site"
      ],
      "osm_type": "node",
      "osm_id": 2286594669
    },
    {
      "name": "Altxista harrespila",
      "lat": 43.187892,
      "lon": -1.95558,
      "fame_score": 4,
      "name_es": "Cromlech Altxista",
      "categories": [
        "historic=archaeological_site"
      ],
      "osm_type": "node",
      "osm_id": 2291161878
    },
    {
      "name": "Altxista trikuharria",
      "lat": 43.186542,
      "lon": -1.954716,
      "fame_score": 4,
      "name_es": "Dolmen Altxista",
      "categories": [
        "historic=archaeological_site"
      ],
      "osm_type": "node",
      "osm_id": 2291161879
    },
    {
      "name": "Otsolepo trikuharria",
      "lat": 43.192701,
      "lon": -1.964109,
      "fame_score": 4,
      "name_es": "Dolmen Otsolepo",
      "categories": [
        "historic=archaeological_site"
      ],
      "osm_type": "node",
      "osm_id": 2291775434
    },
    {
      "name": "Dolmen Igoingo Lepua II",
      "lat": 43.254018,
      "lon": -1.913033,
      "fame_score": 4,
      "name_es": "Dolmen Igoingo Lepua II",
      "categories": [
        "historic=archaeological_site"
      ],
      "osm_type": "node",
      "osm_id": 2467484670
    },
    {
      "name": "Dolmen Igoingo Lepua I",
      "lat": 43.25475,
      "lon": -1.910659,
      "fame_score": 4,
      "name_es": "Dolmen Igoingo Lepua I",
      "categories": [
        "historic=archaeological_site"
      ],
      "osm_type": "node",
      "osm_id": 2467484671
    },
    {
      "name": "Dolmen Sagastietako Lepua I",
      "lat": 43.24735,
      "lon": -1.93128,
      "fame_score": 4,
      "name_es": "Dolmen Sagastietako Lepua I",
      "categories": [
        "historic=archaeological_site"
      ],
      "osm_type": "node",
      "osm_id": 2501887626
    },
    {
      "name": "Dolmen Akolako Lepua I",
      "lat": 43.249605,
      "lon": -1.922235,
      "fame_score": 4,
      "name_es": "Dolmen Akolako Lepua I",
      "categories": [
        "historic=archaeological_site"
      ],
      "osm_type": "node",
      "osm_id": 2501892607
    },
    {
      "name": "Urteagako Zabala Zista",
      "lat": 43.241617,
      "lon": -1.952945,
      "fame_score": 4,
      "name_es": "Cista Urteagako Zabala",
      "categories": [
        "historic=archaeological_site"
      ],
      "osm_type": "node",
      "osm_id": 2525005314
    },
    {
      "name": "Belkoain trikuharria",
      "lat": 43.221324,
      "lon": -2.049257,
      "fame_score": 4,
      "name_es": "Dolmen Belkoain",
      "categories": [
        "historic=archaeological_site"
      ],
      "osm_type": "node",
      "osm_id": 2752617884
    },
    {
      "name": "Túmulo Itxurain",
      "lat": 43.168841,
      "lon": -2.129691,
      "fame_score": 4,
      "name_es": "Túmulo Itxurain",
      "categories": [
        "historic=archaeological_site"
      ],
      "osm_type": "node",
      "osm_id": 2838493619
    },
    {
      "name": "Menhir Saltarri",
      "lat": 43.008308,
      "lon": -2.094481,
      "fame_score": 4,
      "name_es": "Menhir Saltarri",
      "categories": [
        "historic=archaeological_site"
      ],
      "wikidata": "Q12266810",
      "osm_type": "node",
      "osm_id": 2869084715
    },
    {
      "name": "Túmulo Beibatari",
      "lat": 43.1368,
      "lon": -1.963256,
      "fame_score": 4,
      "name_es": "Túmulo Beibatari",
      "categories": [
        "historic=archaeological_site"
      ],
      "osm_type": "node",
      "osm_id": 2931916529
    },
    {
      "name": "Andatza I trikuharria",
      "lat": 43.247093,
      "lon": -2.069577,
      "fame_score": 4,
      "name_es": "Dolmen Andatza I",
      "categories": [
        "historic=archaeological_site"
      ],
      "osm_type": "node",
      "osm_id": 3110815699
    },
    {
      "name": "Andatza II trikuharria",
      "lat": 43.245382,
      "lon": -2.073914,
      "fame_score": 4,
      "name_es": "Dolmen Andatza II",
      "categories": [
        "historic=archaeological_site"
      ],
      "osm_type": "node",
      "osm_id": 3110815700
    },
    {
      "name": "Karramiolotz trikuharria",
      "lat": 43.248305,
      "lon": -2.058378,
      "fame_score": 4,
      "name_es": "Dolmen Karramiolotz",
      "categories": [
        "historic=archaeological_site"
      ],
      "osm_type": "node",
      "osm_id": 3110815702
    },
    {
      "name": "Otoioko begitokia",
      "lat": 43.371328,
      "lon": -2.529846,
      "fame_score": 4,
      "name_es": "Mirador de Otoio",
      "categories": [
        "tourism=viewpoint"
      ],
      "osm_type": "node",
      "osm_id": 3174397403
    },
    {
      "name": "Bolunburuko burdinola",
      "lat": 43.200303,
      "lon": -3.154193,
      "fame_score": 4,
      "name_es": "Ferrería de Bolumburu",
      "categories": [
        "historic=ruins"
      ],
      "wikidata": "Q65581138",
      "osm_type": "node",
      "osm_id": 3197912864
    },
    {
      "name": "Dolmen Atxiñar",
      "lat": 43.359215,
      "lon": -1.842925,
      "fame_score": 4,
      "name_es": "Dolmen Atxiñar",
      "categories": [
        "historic=archaeological_site"
      ],
      "osm_type": "node",
      "osm_id": 3294950067
    },
    {
      "name": "Cromlechs Jaizkibel II 1-5",
      "lat": 43.358315,
      "lon": -1.838883,
      "fame_score": 4,
      "name_es": "Cromlechs Jaizkibel II 1-5",
      "categories": [
        "historic=archaeological_site"
      ],
      "osm_type": "node",
      "osm_id": 3294950068
    },
    {
      "name": "Dolmen Jaizkibel III",
      "lat": 43.357382,
      "lon": -1.838183,
      "fame_score": 4,
      "name_es": "Dolmen Jaizkibel III",
      "categories": [
        "historic=archaeological_site"
      ],
      "osm_type": "node",
      "osm_id": 3294950069
    },
    {
      "name": "Dolmen Jaizkibel IV",
      "lat": 43.359251,
      "lon": -1.83371,
      "fame_score": 4,
      "name_es": "Dolmen Jaizkibel IV",
      "categories": [
        "historic=archaeological_site"
      ],
      "osm_type": "node",
      "osm_id": 3294950070
    },
    {
      "name": "Cromlech Jaizkibel V",
      "lat": 43.358621,
      "lon": -1.8385,
      "fame_score": 4,
      "name_es": "Cromlech Jaizkibel V",
      "categories": [
        "historic=archaeological_site"
      ],
      "osm_type": "node",
      "osm_id": 3294950071
    },
    {
      "name": "Dolmen Zioso",
      "lat": 43.363161,
      "lon": -1.833882,
      "fame_score": 4,
      "name_es": "Dolmen Zioso",
      "categories": [
        "historic=archaeological_site"
      ],
      "osm_type": "node",
      "osm_id": 3294950072
    },
    {
      "name": "Cromlech Algorrieta",
      "lat": 43.308273,
      "lon": -1.832251,
      "fame_score": 4,
      "name_es": "Cromlech Algorrieta",
      "categories": [
        "historic=archaeological_site"
      ],
      "osm_type": "node",
      "osm_id": 3296956148
    },
    {
      "name": "Cromlech Guardiko Lepoa",
      "lat": 43.302942,
      "lon": -1.822978,
      "fame_score": 4,
      "name_es": "Cromlech Guardiko Lepoa",
      "categories": [
        "historic=archaeological_site"
      ],
      "osm_type": "node",
      "osm_id": 3296956149
    },
    {
      "name": "Cromlech Urkullu Txiki Egia",
      "lat": 43.291244,
      "lon": -1.820819,
      "fame_score": 4,
      "name_es": "Cromlech Urkullu Txiki Egia",
      "categories": [
        "historic=archaeological_site"
      ],
      "osm_type": "node",
      "osm_id": 3296956150
    },
    {
      "name": "Cromlech Arritxurieta",
      "lat": 43.274125,
      "lon": -1.83159,
      "fame_score": 4,
      "name_es": "Cromlech Arritxurieta",
      "categories": [
        "historic=archaeological_site"
      ],
      "osm_type": "node",
      "osm_id": 3306479486
    },
    {
      "name": "Cromlech Arritxurietako Gaña",
      "lat": 43.269229,
      "lon": -1.82957,
      "fame_score": 4,
      "name_es": "Cromlech Arritxurietako Gaña",
      "categories": [
        "historic=archaeological_site"
      ],
      "osm_type": "node",
      "osm_id": 3306479487
    },
    {
      "name": "Dolmen Gainzabal",
      "lat": 43.286068,
      "lon": -1.843344,
      "fame_score": 4,
      "name_es": "Dolmen Gainzabal",
      "categories": [
        "historic=archaeological_site"
      ],
      "osm_type": "node",
      "osm_id": 3306479489
    },
    {
      "name": "Cromlech Elorritako Gaña",
      "lat": 43.270824,
      "lon": -1.852701,
      "fame_score": 4,
      "name_es": "Cromlech Elorritako Gaña",
      "categories": [
        "historic=archaeological_site"
      ],
      "osm_type": "node",
      "osm_id": 3312781059
    },
    {
      "name": "Cromlech Zaria I",
      "lat": 43.242795,
      "lon": -1.844863,
      "fame_score": 4,
      "name_es": "Cromlech Zaria I",
      "categories": [
        "historic=archaeological_site"
      ],
      "osm_type": "node",
      "osm_id": 3312781060
    },
    {
      "name": "Cromlech Zaria II",
      "lat": 43.242908,
      "lon": -1.84553,
      "fame_score": 4,
      "name_es": "Cromlech Zaria II",
      "categories": [
        "historic=archaeological_site"
      ],
      "osm_type": "node",
      "osm_id": 3312781661
    },
    {
      "name": "Cromlech Zaria III",
      "lat": 43.243063,
      "lon": -1.84633,
      "fame_score": 4,
      "name_es": "Cromlech Zaria III",
      "categories": [
        "historic=archaeological_site"
      ],
      "osm_type": "node",
      "osm_id": 3312781662
    },
    {
      "name": "Cromlechs Ermañalde 1-2",
      "lat": 43.268114,
      "lon": -1.928981,
      "fame_score": 4,
      "name_es": "Cromlechs Ermañalde 1-2",
      "categories": [
        "historic=archaeological_site"
      ],
      "osm_type": "node",
      "osm_id": 3315165467
    },
    {
      "name": "Atxorrotx",
      "lat": 43.001474,
      "lon": -2.540346,
      "fame_score": 4,
      "categories": [
        "historic=castle"
      ],
      "wikipedia": "eu:Aitzorrotzeko gaztelua",
      "wikidata": "Q12252984",
      "osm_type": "node",
      "osm_id": 3332410154
    },
    {
      "name": "Túmulo Gorostiaran Este",
      "lat": 42.962843,
      "lon": -2.354674,
      "fame_score": 4,
      "name_es": "Túmulo Gorostiaran Este",
      "categories": [
        "historic=archaeological_site"
      ],
      "osm_type": "node",
      "osm_id": 3332442757
    },
    {
      "name": "Dolmen Gorostiaran Oeste",
      "lat": 42.96362,
      "lon": -2.357355,
      "fame_score": 4,
      "name_es": "Dolmen Gorostiaran Oeste",
      "categories": [
        "historic=archaeological_site"
      ],
      "osm_type": "node",
      "osm_id": 3332442758
    },
    {
      "name": "Túmulo Malla",
      "lat": 42.983677,
      "lon": -2.38554,
      "fame_score": 4,
      "name_es": "Túmulo Malla",
      "categories": [
        "historic=archaeological_site"
      ],
      "osm_type": "node",
      "osm_id": 3332442760
    },
    {
      "name": "Túmulo San Adrian",
      "lat": 42.93603,
      "lon": -2.318036,
      "fame_score": 4,
      "name_es": "Túmulo San Adrian",
      "categories": [
        "historic=archaeological_site"
      ],
      "osm_type": "node",
      "osm_id": 3332442765
    },
    {
      "name": "Dolmen Bidaarte I",
      "lat": 42.948962,
      "lon": -2.259672,
      "fame_score": 4,
      "name_es": "Dolmen Bidaarte I",
      "categories": [
        "historic=archaeological_site"
      ],
      "osm_type": "node",
      "osm_id": 3332497650
    },
    {
      "name": "Dolmen Etxegarate",
      "lat": 42.949871,
      "lon": -2.229415,
      "fame_score": 4,
      "name_es": "Dolmen Etxegarate",
      "categories": [
        "historic=archaeological_site"
      ],
      "osm_type": "node",
      "osm_id": 3332497652
    },
    {
      "name": "Dolmen Otsaarte",
      "lat": 42.942642,
      "lon": -2.255666,
      "fame_score": 4,
      "name_es": "Dolmen Otsaarte",
      "categories": [
        "historic=archaeological_site"
      ],
      "osm_type": "node",
      "osm_id": 3332497654
    },
    {
      "name": "Arkutxa trikuharria",
      "lat": 43.250923,
      "lon": -2.04316,
      "fame_score": 4,
      "name_es": "Dolmen Arkutxa",
      "categories": [
        "historic=archaeological_site"
      ],
      "osm_type": "node",
      "osm_id": 3332919229
    },
    {
      "name": "Beldarrain trikuharria",
      "lat": 43.249484,
      "lon": -2.097958,
      "fame_score": 4,
      "name_es": "Dolmen Beldarrain",
      "categories": [
        "historic=archaeological_site"
      ],
      "osm_type": "node",
      "osm_id": 3332919230
    },